% program   : RTKLIB ver.2.4.3
% inp file  : GEOP156M.26o
% inp file  : brdc1560.26n
% obs start : 2026/06/05 12:40:51.4 GPST (week2421 477651.4s)
% obs end   : 2026/06/05 12:51:25.8 GPST (week2421 478285.8s)
%
% (lat/lon/height=WGS84/ellipsoidal,Q=1:fix,2:float,3:sbas,4:dgps,5:single,6:ppp,ns=# of satellites)
%  GPST                  latitude(deg) longitude(deg)  height(m)   Q  ns   sdn(m)   sde(m)   sdu(m)  sdne(m)  sdeu(m)  sdun(m) age(s)  ratio
2026/06/05 12:40:52.426   39.728645044  116.163323325    43.2528   5   7   6.7391   4.6479  13.3367  -1.2823  -3.5572  -6.0637   0.00    0.0
2026/06/05 12:40:53.426   39.728673130  116.163350157    47.0906   5   7   6.7387   4.6479  13.3368  -1.2837  -3.5555  -6.0637   0.00    0.0
2026/06/05 12:40:56.755   39.728666742  116.163356529    64.9797   5   7   6.7374   4.6477  13.3370  -1.2885  -3.5499  -6.0636   0.00    0.0
2026/06/05 12:40:57.756   39.728657201  116.163334549    41.3205   5   7   6.7370   4.6477  13.3370  -1.2900  -3.5482  -6.0636   0.00    0.0
2026/06/05 12:40:58.771   39.728716351  116.163299821    51.0970   5   7   6.7366   4.6477  13.3371  -1.2915  -3.5465  -6.0636   0.00    0.0
2026/06/05 12:41:00.756   39.728757273  116.163205318    71.4256   5   7   6.7358   4.6476  13.3372  -1.2943  -3.5431  -6.0635   0.00    0.0
2026/06/05 12:41:01.780   39.728686169  116.163226547    43.8336   5   7   6.7353   4.6476  13.3372  -1.2958  -3.5414  -6.0635   0.00    0.0
2026/06/05 12:41:02.747   39.728756290  116.163374410    28.6049   5   7   6.7350   4.6476  13.3373  -1.2972  -3.5398  -6.0635   0.00    0.0
2026/06/05 12:41:03.771   39.728801525  116.163405264    48.5670   5   7   6.7346   4.6475  13.3373  -1.2986  -3.5381  -6.0635   0.00    0.0
2026/06/05 12:41:04.749   39.728874984  116.163189726    69.1963   5   6   6.7369   5.3585  13.7159  -1.0871  -4.5870  -6.1135   0.00    0.0
2026/06/05 12:41:05.778   39.728783431  116.163313094    80.9275   5   7   6.7337   4.6475  13.3374  -1.3015  -3.5347  -6.0634   0.00    0.0
2026/06/05 12:41:06.747   39.728731688  116.163410020    67.9971   5   6   6.9077   6.2529  21.6983  -2.8545   7.6886  -7.9471   0.00    0.0
2026/06/05 12:41:07.751   39.728774589  116.163225105    35.9597   5   6   6.7356   5.3584  13.7163  -1.0948  -4.5834  -6.1129   0.00    0.0
2026/06/05 12:41:08.768   39.728909744  116.163328523    41.2980   5   6   8.4730   5.2583  13.7666  -3.7895  -4.5658  -4.3844   0.00    0.0
2026/06/05 12:41:09.753   39.728688446  116.163663613    80.5128   5   7   6.7321   4.6474  13.3376  -1.3071  -3.5281  -6.0633   0.00    0.0
2026/06/05 12:41:10.771   39.728766328  116.163342246    47.1855   5   7   6.7317   4.6473  13.3377  -1.3086  -3.5262  -6.0633   0.00    0.0
2026/06/05 12:41:11.751   39.728826555  116.163428705     5.5680   5   6   6.7339   5.3583  13.7168  -1.1048  -4.5786  -6.1122   0.00    0.0
2026/06/05 12:41:12.759   39.728697790  116.163234009    57.6504   5   7   6.7309   4.6473  13.3377  -1.3115  -3.5228  -6.0633   0.00    0.0
2026/06/05 12:41:13.760   39.728654601  116.163405937    62.9689   5   7   6.7305   4.6473  13.3378  -1.3129  -3.5212  -6.0632   0.00    0.0
2026/06/05 12:41:14.755   39.728693444  116.163447062    56.8476   5   7   6.7301   4.6472  13.3378  -1.3142  -3.5195  -6.0632   0.00    0.0
2026/06/05 12:41:15.768   39.728824149  116.163374238    47.6719   5   7   6.7297   4.6472  13.3379  -1.3157  -3.5177  -6.0632   0.00    0.0
2026/06/05 12:41:16.752   39.728800317  116.163247248    62.2437   5   7   6.7293   4.6472  13.3379  -1.3171  -3.5160  -6.0632   0.00    0.0
2026/06/05 12:41:17.751   39.728796483  116.163273936    49.3936   5   7   6.7289   4.6471  13.3379  -1.3185  -3.5143  -6.0632   0.00    0.0
2026/06/05 12:41:18.773   39.728835456  116.163271482    57.5369   5   7   6.7285   4.6471  13.3380  -1.3200  -3.5125  -6.0632   0.00    0.0
2026/06/05 12:41:19.750   39.728772959  116.163242019    64.7701   5   7   6.7281   4.6471  13.3380  -1.3213  -3.5109  -6.0632   0.00    0.0
2026/06/05 12:41:20.775   39.728664158  116.163295592    49.0222   5   6   6.7301   5.3580  13.7178  -1.1273  -4.5675  -6.1104   0.00    0.0
2026/06/05 12:41:21.750   39.728727608  116.163295878    31.4051   5   6   6.7297   5.3580  13.7179  -1.1297  -4.5663  -6.1102   0.00    0.0
2026/06/05 12:41:22.754   39.728790469  116.163384530    55.3385   5   7   6.7269   4.6470  13.3381  -1.3255  -3.5058  -6.0631   0.00    0.0
2026/06/05 12:41:23.772   39.728783454  116.163441252    41.7117   5   6   6.7289   5.3579  13.7181  -1.1346  -4.5639  -6.1099   0.00    0.0
2026/06/05 12:41:24.755   39.728659160  116.163361460    65.4524   5   7   6.7261   4.6470  13.3382  -1.3283  -3.5023  -6.0631   0.00    0.0
2026/06/05 12:41:25.773   39.728835571  116.163265425    54.9624   5   7   6.7257   4.6469  13.3382  -1.3298  -3.5005  -6.0631   0.00    0.0
2026/06/05 12:41:26.751   39.728832485  116.163199239    49.8865   5   6   8.2901   5.0354  14.0076  -3.3427  -4.5320  -4.0030   0.00    0.0
2026/06/05 12:41:27.755   39.728599632  116.163402879    41.2744   5   7   6.7249   4.6469  13.3383  -1.3325  -3.4972  -6.0630   0.00    0.0
2026/06/05 12:41:28.771   39.728753559  116.163286357    28.8933   5   7   6.7245   4.6469  13.3383  -1.3339  -3.4954  -6.0630   0.00    0.0
2026/06/05 12:41:29.756   39.728757165  116.163322476    60.0217   5   7   6.7241   4.6468  13.3383  -1.3353  -3.4937  -6.0630   0.00    0.0
2026/06/05 12:41:30.748   39.728816606  116.163225840    27.0488   5   7   6.7238   4.6468  13.3384  -1.3367  -3.4919  -6.0630   0.00    0.0
2026/06/05 12:41:45.913   39.728664719  116.163373447    18.4338   5   7   6.7177   4.6465  13.3387  -1.3575  -3.4656  -6.0629   0.00    0.0
2026/06/05 12:41:46.413   39.728727486  116.163264607    42.4765   5   7   6.7175   4.6464  13.3387  -1.3583  -3.4646  -6.0629   0.00    0.0
2026/06/05 12:41:47.413   39.728694055  116.163355948    55.8938   5   7   6.7171   4.6464  13.3387  -1.3596  -3.4629  -6.0628   0.00    0.0
2026/06/05 12:41:48.413   39.728771227  116.163369409    31.3169   5   7   6.7167   4.6464  13.3387  -1.3609  -3.4612  -6.0629   0.00    0.0
2026/06/05 12:41:49.413   39.728684666  116.163380693    55.5218   5   7   6.7163   4.6464  13.3387  -1.3623  -3.4594  -6.0628   0.00    0.0
2026/06/05 12:41:50.413   39.728703310  116.163350913    65.3143   5   7   6.7159   4.6464  13.3387  -1.3637  -3.4576  -6.0628   0.00    0.0
2026/06/05 12:41:51.413   39.728753763  116.163388448    41.9790   5   7   6.7155   4.6463  13.3388  -1.3650  -3.4559  -6.0628   0.00    0.0
2026/06/05 12:41:52.413   39.728695773  116.163321980    63.3324   5   7   6.7151   4.6463  13.3388  -1.3664  -3.4541  -6.0628   0.00    0.0
2026/06/05 12:41:53.413   39.728731068  116.163367707    54.5760   5   7   6.7147   4.6463  13.3388  -1.3677  -3.4524  -6.0628   0.00    0.0
2026/06/05 12:41:54.413   39.728696934  116.163364089    56.2157   5   7   6.7143   4.6463  13.3388  -1.3691  -3.4506  -6.0628   0.00    0.0
2026/06/05 12:41:55.413   39.728730704  116.163362976    42.6002   5   7   6.7139   4.6463  13.3388  -1.3704  -3.4488  -6.0628   0.00    0.0
2026/06/05 12:42:12.624   39.728805201  116.163431318    41.3054   5   7   6.7071   4.6459  13.3388  -1.3934  -3.4182  -6.0628   0.00    0.0
2026/06/05 12:42:13.424   39.728727061  116.163470905    64.0168   5   7   6.7068   4.6459  13.3388  -1.3945  -3.4168  -6.0628   0.00    0.0
2026/06/05 12:44:17.742   39.728647111  116.163279922    40.4432   5   5   8.4662   6.0431  14.4359  -4.1091  -5.5978  -3.6830   0.00    0.0
2026/06/05 12:44:18.422   39.728795532  116.163330988    65.8963   5   7   6.6582   4.6450  13.3315  -1.5502  -3.1792  -6.0657   0.00    0.0
2026/06/05 12:44:19.422   39.728729186  116.163500535    40.1521   5   7   6.6578   4.6450  13.3314  -1.5514  -3.1773  -6.0657   0.00    0.0
2026/06/05 12:50:30.428   39.728278187  116.163525649   154.3289   5   4  21.3200  19.1961  74.7332 -19.2690  36.7618 -39.0013   0.00    0.0
2026/06/05 12:50:31.428   39.728624986  116.163239128    50.2818   5   7   6.5224   4.6611  13.2366  -1.9380  -2.2642  -6.0972   0.00    0.0
2026/06/05 12:50:32.428   39.728713230  116.163249574    35.2452   5   7   6.5221   4.6611  13.2362  -1.9389  -2.2612  -6.0973   0.00    0.0
2026/06/05 12:51:00.379   39.728575951  116.163306026    41.1479   5   5  11.9374   8.1364  26.4749   5.4464  -3.4363 -15.5149   0.00    0.0
2026/06/05 12:51:01.419   39.728516286  116.163396952    61.2774   5   7   6.5121   4.6637  13.2244  -1.9658  -2.1708  -6.1007   0.00    0.0
2026/06/05 12:51:02.419   39.728468969  116.163348786    69.3165   5   7   6.5118   4.6638  13.2240  -1.9667  -2.1676  -6.1008   0.00    0.0
2026/06/05 12:51:03.419   39.728609272  116.163323412    63.8168   5   6  11.2632   7.1010  19.6181   6.7334  -9.0709 -13.0539   0.00    0.0
2026/06/05 12:51:04.419   39.728595049  116.163344697    51.5772   5   6  11.2635   7.1002  19.6187   6.7326  -9.0696 -13.0547   0.00    0.0
2026/06/05 12:51:05.419   39.728588881  116.163360790    74.5020   5   6  11.2639   7.0995  19.6191   6.7319  -9.0683 -13.0555   0.00    0.0
2026/06/05 12:51:06.419   39.728656983  116.163460304    57.5189   5   6  11.2643   7.0987  19.6197   6.7312  -9.0670 -13.0563   0.00    0.0
2026/06/05 12:51:07.419   39.728720634  116.163449021    41.8091   5   6  11.2647   7.0980  19.6202   6.7305  -9.0657 -13.0572   0.00    0.0
2026/06/05 12:51:08.419   39.728716324  116.163469637    50.1471   5   6  11.2650   7.0972  19.6207   6.7297  -9.0644 -13.0580   0.00    0.0
2026/06/05 12:51:09.419   39.728671718  116.163358120    44.9785   5   6  11.2654   7.0964  19.6212   6.7289  -9.0630 -13.0588   0.00    0.0
2026/06/05 12:51:10.419   39.728686863  116.163378846    63.8606   5   6  11.2658   7.0957  19.6217   6.7282  -9.0617 -13.0596   0.00    0.0
2026/06/05 12:51:11.419   39.728499751  116.163305477    93.8040   5   7   6.5087   4.6647  13.2202  -1.9750  -2.1386  -6.1019   0.00    0.0
2026/06/05 12:51:12.419   39.728692886  116.163350706    50.0066   5   6  11.2665   7.0941  19.6228   6.7267  -9.0591 -13.0613   0.00    0.0
2026/06/05 12:51:13.419   39.728618404  116.163336988    71.4927   5   6  11.2668   7.0934  19.6233   6.7260  -9.0577 -13.0621   0.00    0.0
2026/06/05 12:51:14.419   39.728591820  116.163338123    71.4398   5   6  11.2672   7.0926  19.6238   6.7252  -9.0564 -13.0629   0.00    0.0
2026/06/05 12:51:15.773   39.728533400  116.163319064    77.0754   5   5  11.7074   9.0849  19.8093   7.9539  -9.8649 -13.3884   0.00    0.0
2026/06/05 12:51:16.756   39.728606524  116.163377991    39.2207   5   6  11.2681   7.0908  19.6250   6.7235  -9.0533 -13.0648   0.00    0.0
2026/06/05 12:51:17.774   39.728644388  116.163417661    34.6444   5   6  11.2684   7.0901  19.6255   6.7228  -9.0520 -13.0657   0.00    0.0
2026/06/05 12:51:18.753   39.728418261  116.163252925    63.9016   5   6  11.2687   7.0893  19.6260   6.7219  -9.0506 -13.0664   0.00    0.0
2026/06/05 12:51:19.769   39.728693258  116.163397053    54.7819   5   7   6.5059   4.6655  13.2166  -1.9827  -2.1114  -6.1030   0.00    0.0
2026/06/05 12:51:20.751   39.728552519  116.163404713    82.7207   5   7   6.5055   4.6656  13.2162  -1.9836  -2.1082  -6.1031   0.00    0.0
2026/06/05 12:51:21.747   39.728592495  116.163392324    74.8804   5   7   6.5052   4.6657  13.2158  -1.9845  -2.1049  -6.1032   0.00    0.0
2026/06/05 12:51:22.775   39.728604432  116.163334598    60.7352   5   7   6.5048   4.6658  13.2153  -1.9854  -2.1015  -6.1033   0.00    0.0
2026/06/05 12:51:23.758   39.728656208  116.163425879    77.5433   5   7   6.5045   4.6659  13.2149  -1.9863  -2.0983  -6.1035   0.00    0.0
2026/06/05 12:51:24.765   39.728679097  116.163388887    53.0235   5   7   6.5042   4.6660  13.2145  -1.9872  -2.0949  -6.1036   0.00    0.0
2026/06/05 12:51:25.755   39.728709196  116.163313026    42.7261   5   7   6.5038   4.6661  13.2141  -1.9882  -2.0916  -6.1037   0.00    0.0
