% program   : RTKLIB ver.2.4.3
% inp file  : GEOP156M.26o
% inp file  : brdc1560.26n
% obs start : 2026/06/05 12:40:51.4 GPST (week2421 477651.4s)
% obs end   : 2026/06/05 12:51:25.8 GPST (week2421 478285.8s)
%
% (lat/lon/height=WGS84/ellipsoidal,Q=1:fix,2:float,3:sbas,4:dgps,5:single,6:ppp,ns=# of satellites)
%  GPST                  latitude(deg) longitude(deg)  height(m)   Q  ns   sdn(m)   sde(m)   sdu(m)  sdne(m)  sdeu(m)  sdun(m) age(s)  ratio
2026/06/05 12:40:51.426   39.728690349  116.163366878    31.9302   5   7   7.8450   5.1757  13.8286  -2.9666  -4.3310  -5.2658   0.00    0.0
2026/06/05 12:40:52.426   39.728651577  116.163319478    43.5905   5   7   6.9347   4.7522  13.5220  -1.5932  -3.6628  -6.0271   0.00    0.0
2026/06/05 12:40:53.426   39.728685141  116.163342494    47.8291   5   7   6.9835   4.7595  13.5431  -1.7088  -3.6644  -5.9902   0.00    0.0
2026/06/05 12:40:55.782   39.728625512  116.163217149    93.7242   5   7   6.8574   4.9295  13.6585  -1.2284  -3.9514  -6.1861   0.00    0.0
2026/06/05 12:40:56.755   39.728666503  116.163357988    64.8780   5   7   6.8708   4.7316  13.5608  -1.2987  -3.6346  -6.1714   0.00    0.0
2026/06/05 12:40:57.756   39.728657932  116.163334133    41.3182   5   7   6.8397   4.7280  13.5092  -1.3369  -3.6037  -6.1463   0.00    0.0
2026/06/05 12:40:58.771   39.728716231  116.163300738    50.9843   5   7   6.8556   4.7628  13.5889  -1.0611  -3.6733  -6.2298   0.00    0.0
2026/06/05 12:40:59.748   39.728671575  116.163169095    31.3468   5   7   6.8452   5.4284  13.9888  -1.1656  -4.3968  -6.2163   0.00    0.0
2026/06/05 12:41:00.756   39.728759930  116.163242451    67.0329   5   7   6.8126   5.0151  13.6698  -1.3970  -3.9323  -6.0744   0.00    0.0
2026/06/05 12:41:01.780   39.728690172  116.163291710    36.9839   5   7   6.8269   5.1618  13.7028  -1.3827  -4.2047  -6.0931   0.00    0.0
2026/06/05 12:41:02.747   39.728755639  116.163373734    28.6421   5   7   6.7941   4.7299  13.4941  -1.4012  -3.5603  -6.0666   0.00    0.0
2026/06/05 12:41:03.771   39.728802465  116.163407222    47.8233   5   7   6.8229   4.8201  13.6956  -1.4516  -3.5252  -6.1047   0.00    0.0
2026/06/05 12:41:04.749   39.728868982  116.163193275    68.3382   5   6   6.8907   5.4983  13.9998  -1.5289  -4.6288  -6.0481   0.00    0.0
2026/06/05 12:41:05.778   39.728783951  116.163316991    80.4662   5   7   6.8115   4.8531  13.5595  -1.3831  -3.7720  -6.0937   0.00    0.0
2026/06/05 12:41:06.747   39.728731108  116.163408445    67.7935   5   6   7.0015   6.3771  21.9788  -2.9398   7.8443  -7.9579   0.00    0.0
2026/06/05 12:41:07.751   39.728774832  116.163225239    36.0934   5   6   6.8795   5.5776  14.1402  -1.6205  -4.3730  -6.0587   0.00    0.0
2026/06/05 12:41:08.768   39.728909839  116.163332044    40.7632   5   6   8.6221   5.3955  14.0838  -3.8084  -4.7334  -4.5506   0.00    0.0
2026/06/05 12:41:09.753   39.728687247  116.163662879    80.5275   5   7   6.8134   4.7804  13.8347  -1.4952  -3.2240  -6.1616   0.00    0.0
2026/06/05 12:41:10.771   39.728769546  116.163336214    46.5513   5   7   6.9300   4.9033  13.9902  -1.1812  -3.8889  -6.3915   0.00    0.0
2026/06/05 12:41:11.751   39.728825163  116.163427937     6.0864   5   6   6.9946   5.5244  14.3247  -1.4020  -4.9414  -6.2459   0.00    0.0
2026/06/05 12:41:12.759   39.728700793  116.163231459    57.2167   5   7   6.8611   4.7485  13.6258  -1.5914  -3.4104  -6.0595   0.00    0.0
2026/06/05 12:41:13.760   39.728654405  116.163406133    62.9422   5   7   6.9954   4.7779  13.5471  -1.7240  -3.6771  -5.9892   0.00    0.0
2026/06/05 12:41:14.755   39.728693047  116.163446241    56.4644   5   7   6.9519   4.7590  13.5039  -1.7217  -3.6158  -5.9914   0.00    0.0
2026/06/05 12:41:15.768   39.728823673  116.163374793    47.6629   5   7   6.9099   4.7421  13.4946  -1.6310  -3.5910  -6.0294   0.00    0.0
2026/06/05 12:41:16.752   39.728800662  116.163246707    62.0986   5   7   6.8569   4.7590  13.5917  -1.5215  -3.4762  -6.1060   0.00    0.0
2026/06/05 12:41:17.751   39.728796766  116.163272338    49.3260   5   7   6.8478   4.7453  13.5423  -1.5517  -3.4757  -6.0852   0.00    0.0
2026/06/05 12:41:18.773   39.728835655  116.163272807    56.8916   5   7   6.8831   4.7865  13.6212  -1.6417  -3.4876  -6.0508   0.00    0.0
2026/06/05 12:41:19.750   39.728769169  116.163249925    64.0098   5   7   6.9147   4.8848  13.6047  -1.6533  -3.7751  -6.0090   0.00    0.0
2026/06/05 12:41:20.775   39.728657675  116.163300186    48.8473   5   6   6.9901   5.5094  13.9579  -1.7607  -4.6187  -5.9595   0.00    0.0
2026/06/05 12:41:21.750   39.728727245  116.163295998    31.3328   5   6   6.8811   5.4664  13.9154  -1.5216  -4.5546  -6.0624   0.00    0.0
2026/06/05 12:41:22.754   39.728792211  116.163390946    54.5926   5   7   6.8298   4.9223  13.8432  -1.5536  -3.4627  -6.0913   0.00    0.0
2026/06/05 12:41:23.772   39.728783258  116.163441311    41.6592   5   6   6.8279   5.4563  13.9322  -1.4198  -4.5592  -6.0879   0.00    0.0
2026/06/05 12:41:24.755   39.728661716  116.163361511    65.1430   5   7   6.8212   4.7359  13.6953  -1.4567  -3.3881  -6.1454   0.00    0.0
2026/06/05 12:41:25.773   39.728824774  116.163241072    57.2537   5   7   6.9651   5.0036  13.7592  -1.7436  -3.9798  -5.9386   0.00    0.0
2026/06/05 12:41:26.751   39.728832195  116.163199410    49.6786   5   6   8.3728   5.1318  14.2880  -3.4494  -4.5145  -3.9951   0.00    0.0
2026/06/05 12:41:27.755   39.728602905  116.163401939    41.2444   5   7   6.8956   4.7412  13.6002  -1.6218  -3.5143  -5.9963   0.00    0.0
2026/06/05 12:41:28.771   39.728754100  116.163285523    28.4587   5   7   6.8031   4.7364  13.7165  -1.4440  -3.3238  -6.1494   0.00    0.0
2026/06/05 12:41:29.756   39.728756446  116.163323219    59.9796   5   7   6.7907   4.6962  13.4382  -1.4412  -3.5098  -6.0605   0.00    0.0
2026/06/05 12:41:30.748   39.728817352  116.163226436    27.6697   5   7   6.8631   4.7729  13.7843  -1.6326  -3.2363  -6.0746   0.00    0.0
2026/06/05 12:41:45.913   39.728643203  116.163403840    23.0709   5   7   6.9349   4.8956  13.6850  -2.0090  -3.0197  -6.3122   0.00    0.0
2026/06/05 12:41:46.413   39.728729798  116.163266521    42.2078   5   7   6.8139   4.7580  13.5574  -1.5040  -3.5447  -6.0812   0.00    0.0
2026/06/05 12:41:47.413   39.728695144  116.163360343    55.5094   5   7   6.8212   4.8647  13.6169  -1.5367  -3.6577  -6.0508   0.00    0.0
2026/06/05 12:41:48.413   39.728772262  116.163366977    31.3958   5   7   6.8049   4.8506  13.6571  -1.5165  -3.5312  -6.0899   0.00    0.0
2026/06/05 12:41:49.413   39.728684694  116.163381369    55.4107   5   7   6.8181   4.7793  13.6207  -1.5020  -3.4552  -6.1040   0.00    0.0
2026/06/05 12:41:50.413   39.728704553  116.163359722    64.0833   5   7   6.8377   4.8784  13.6413  -1.5822  -3.6331  -6.0528   0.00    0.0
2026/06/05 12:41:51.413   39.728752796  116.163385436    42.5279   5   7   6.7794   4.7805  13.6037  -1.4862  -3.4410  -6.0916   0.00    0.0
2026/06/05 12:41:52.413   39.728696785  116.163331484    62.0354   5   7   6.7942   4.8942  13.7562  -1.5000  -3.4979  -6.1260   0.00    0.0
2026/06/05 12:41:53.413   39.728730076  116.163367858    54.7817   5   7   6.8693   4.8558  13.7502  -1.6004  -3.4995  -6.1019   0.00    0.0
2026/06/05 12:41:54.413   39.728697190  116.163364056    56.1871   5   7   6.8200   4.7204  13.4877  -1.4665  -3.5214  -6.0788   0.00    0.0
2026/06/05 12:41:55.413   39.728723747  116.163354963    44.1319   5   7   7.5873   5.2001  14.4120   2.0654  -4.8518  -7.2431   0.00    0.0
2026/06/05 12:42:12.624   39.728777833  116.163467987    47.7845   5   7   7.0203   4.9774  13.8073  -2.1747  -2.8572  -6.4039   0.00    0.0
2026/06/05 12:42:13.424   39.728726416  116.163471694    64.1409   5   7   6.8793   4.7808  13.6300  -1.5705  -3.4520  -6.1507   0.00    0.0
2026/06/05 12:44:17.742   39.728648016  116.163280291    40.3994   5   5   8.5997   6.1711  14.8100  -4.1591  -5.5867  -3.6527   0.00    0.0
2026/06/05 12:44:18.422   39.728796567  116.163330194    64.9775   5   7   6.7580   4.7873  13.7871  -1.6939  -2.8854  -6.1967   0.00    0.0
2026/06/05 12:44:19.422   39.728728927  116.163498697    40.6565   5   7   6.8624   4.8676  13.8635  -1.6937  -3.1730  -6.2402   0.00    0.0
2026/06/05 12:50:30.428   39.728278187  116.163525649   154.3289   5   4  21.9532  19.3940  76.3284 -19.5735  37.2646 -40.0071   0.00    0.0
2026/06/05 12:50:31.428   39.728622841  116.163238963    50.5125   5   7   6.7979   4.8859  13.8220  -1.7254  -2.2545  -6.5684   0.00    0.0
2026/06/05 12:50:32.428   39.728701530  116.163264879    38.2082   5   7   6.7758   4.8990  13.7902  -2.0003  -1.8854  -6.5315   0.00    0.0
2026/06/05 12:51:00.379   39.728576567  116.163308624    41.2155   5   5  12.0708   8.2614  26.7761   5.5145  -3.3537 -15.6947   0.00    0.0
2026/06/05 12:51:01.419   39.728513510  116.163395801    61.6924   5   7   6.8956   4.8936  13.9135  -1.4625  -2.5825  -6.7337   0.00    0.0
2026/06/05 12:51:02.419   39.728469891  116.163349704    69.1332   5   7   7.0218   4.9708  14.1301  -1.1263  -2.7637  -6.9579   0.00    0.0
2026/06/05 12:51:03.419   39.728611254  116.163326397    63.3618   5   6  11.4722   7.3040  20.0711   6.8628  -9.1379 -13.3254   0.00    0.0
2026/06/05 12:51:04.419   39.728599175  116.163350225    50.7238   5   6  11.4619   7.3159  20.1366   6.8481  -9.1020 -13.3416   0.00    0.0
2026/06/05 12:51:05.419   39.728591226  116.163363515    74.0067   5   6  11.3998   7.3042  20.0499   6.8155  -9.0583 -13.2688   0.00    0.0
2026/06/05 12:51:06.419   39.728654974  116.163456190    57.7374   5   6  11.4034   7.3390  20.0972   6.8206  -9.0346 -13.2847   0.00    0.0
2026/06/05 12:51:07.419   39.728716003  116.163444297    42.8680   5   6  11.3831   7.2984  20.0039   6.8116  -9.0568 -13.2451   0.00    0.0
2026/06/05 12:51:08.419   39.728711681  116.163464342    51.1260   5   6  11.4020   7.3330  20.1349   6.8061  -9.0077 -13.2960   0.00    0.0
2026/06/05 12:51:09.419   39.728662532  116.163355390    47.8254   5   6  11.4237   7.3650  20.4074   6.7576  -8.8570 -13.3859   0.00    0.0
2026/06/05 12:51:10.419   39.728686872  116.163373377    63.1943   5   6  11.4155   7.3389  20.3409   6.7585  -8.8839 -13.3640   0.00    0.0
2026/06/05 12:51:11.419   39.728521704  116.163314533    89.3177   5   7   7.2964   5.4057  15.3163  -0.6322  -1.3107  -7.6211   0.00    0.0
2026/06/05 12:51:12.419   39.728688437  116.163348921    51.3255   5   6  11.4243   7.3702  20.5337   6.7184  -8.7583 -13.4196   0.00    0.0
2026/06/05 12:51:13.419   39.728619891  116.163335295    70.7835   5   6  11.3807   7.3081  20.0371   6.8002  -9.0237 -13.2530   0.00    0.0
2026/06/05 12:51:14.419   39.728594776  116.163338764    70.5087   5   6  11.3918   7.3122  20.0628   6.8040  -9.0291 -13.2692   0.00    0.0
2026/06/05 12:51:15.773   39.728533409  116.163318749    77.0358   5   5  11.8124   9.2542  20.2299   7.9814  -9.7684 -13.5647   0.00    0.0
2026/06/05 12:51:16.756   39.728607489  116.163379822    39.1280   5   6  11.3749   7.2404  19.8871   6.8076  -9.1142 -13.2112   0.00    0.0
2026/06/05 12:51:17.774   39.728646354  116.163419045    34.1723   5   6  11.3944   7.3100  19.9829   6.8261  -9.0897 -13.2491   0.00    0.0
2026/06/05 12:51:18.753   39.728419061  116.163257576    64.2266   5   6  11.3897   7.2852  20.0976   6.7822  -9.0065 -13.2843   0.00    0.0
2026/06/05 12:51:19.769   39.728673497  116.163421139    60.2083   5   7   6.7545   4.9521  13.8169  -2.1433  -1.2243  -6.6038   0.00    0.0
2026/06/05 12:51:20.751   39.728551199  116.163405078    83.0083   5   7   6.6214   4.7557  13.4641  -1.9376  -2.0903  -6.2847   0.00    0.0
2026/06/05 12:51:21.747   39.728589675  116.163391730    75.4017   5   7   6.6558   4.7683  13.4921  -1.8695  -2.2089  -6.3401   0.00    0.0
2026/06/05 12:51:22.775   39.728602833  116.163334496    61.0615   5   7   6.6208   4.7541  13.4556  -1.9154  -2.1118  -6.2922   0.00    0.0
2026/06/05 12:51:23.758   39.728653534  116.163425932    78.1275   5   7   6.6721   4.8064  13.5677  -1.9150  -2.0351  -6.3836   0.00    0.0
2026/06/05 12:51:24.765   39.728677775  116.163389014    53.3053   5   7   6.6180   4.7525  13.4396  -1.9369  -2.1054  -6.2764   0.00    0.0
2026/06/05 12:51:25.755   39.728707704  116.163313713    43.0481   5   7   6.6057   4.7463  13.4272  -1.9551  -2.0686  -6.2585   0.00    0.0
