% program   : rnx2rtkp ver.2.4.3 b34
% inp file  : ..\..\..\..\test\data\rinex\07590920.05o
% inp file  : ..\..\..\..\test\data\rinex\30400920.05n
% inp file  : ..\..\..\..\test\data\rinex\30400920.05o
% obs start : 2005/04/02 00:00:00.0 GPST (week1316 518400.0s)
% obs end   : 2005/04/02 00:59:30.0 GPST (week1316 521970.0s)
% ref pos   : 35.132057068  139.624306577    73.9077
%
% (lat/lon/height=WGS84/ellipsoidal,Q=1:fix,2:float,3:sbas,4:dgps,5:single,6:ppp,ns=# of satellites)
%  GPST          latitude(deg) longitude(deg)  height(m)   Q  ns   sdn(m)   sde(m)   sdu(m)  sdne(m)  sdeu(m)  sdun(m) age(s)  ratio
1316 518400.000   35.160865956  139.613842998    68.3784   1   7   0.0058   0.0044   0.0136   0.0022  -0.0047  -0.0055   0.00   24.9
1316 518430.000   35.160865949  139.613843027    68.3717   1   7   0.0059   0.0043   0.0136   0.0022  -0.0046  -0.0055   0.00   41.6
1316 518460.000   35.160865937  139.613843023    68.3731   1   7   0.0059   0.0045   0.0136   0.0021  -0.0046  -0.0055   0.00   41.3
1316 518490.000   35.160865926  139.613843004    68.3840   1   7   0.0057   0.0044   0.0135   0.0020  -0.0047  -0.0054   0.00   53.6
1316 518520.000   35.160865972  139.613843055    68.3811   1   7   0.0058   0.0044   0.0135   0.0023  -0.0047  -0.0054   0.00   65.1
1316 518550.000   35.160865963  139.613843040    68.3787   1   7   0.0058   0.0046   0.0136   0.0022  -0.0045  -0.0054   0.00   68.8
1316 518580.000   35.160865940  139.613843020    68.3916   1   7   0.0056   0.0045   0.0135   0.0022  -0.0045  -0.0054   0.00   78.7
1316 518610.000   35.160865923  139.613842999    68.3960   1   7   0.0058   0.0044   0.0135   0.0021  -0.0046  -0.0052   0.00   70.9
1316 518640.000   35.160865958  139.613842990    68.3941   1   7   0.0059   0.0044   0.0135   0.0022  -0.0046  -0.0052   0.00   69.2
1316 518670.000   35.160865970  139.613843070    68.3780   1   7   0.0060   0.0044   0.0134   0.0028  -0.0043  -0.0051   0.00   66.4
1316 518700.000   35.160866001  139.613843023    68.3837   1   7   0.0057   0.0046   0.0134   0.0021  -0.0045  -0.0051   0.00   69.8
1316 518730.000   35.160866014  139.613842985    68.3898   1   7   0.0059   0.0044   0.0134   0.0022  -0.0045  -0.0051   0.00   86.5
1316 518760.000   35.160866021  139.613842999    68.3806   1   7   0.0059   0.0042   0.0134   0.0024  -0.0044  -0.0049   0.00   83.6
1316 518790.000   35.160866000  139.613843001    68.3818   1   7   0.0056   0.0046   0.0134   0.0022  -0.0045  -0.0048   0.00   86.9
1316 518820.000   35.160865966  139.613842969    68.3873   1   7   0.0059   0.0039   0.0133   0.0016  -0.0044  -0.0050   0.00   88.5
1316 518850.000   35.160865968  139.613842967    68.3893   1   7   0.0056   0.0044   0.0133   0.0024  -0.0042  -0.0049   0.00   89.1
1316 518880.000   35.160865977  139.613842996    68.3840   1   7   0.0058   0.0045   0.0133   0.0022  -0.0044  -0.0049   0.00   95.1
1316 518910.000   35.160865955  139.613842962    68.3826   1   7   0.0056   0.0044   0.0133   0.0020  -0.0043  -0.0049   0.00  101.2
1316 518940.000   35.160865934  139.613843002    68.3839   1   7   0.0058   0.0044   0.0133   0.0021  -0.0041  -0.0049   0.00  107.1
1316 518970.000   35.160865976  139.613843073    68.3586   1   7   0.0059   0.0042   0.0132   0.0019  -0.0042  -0.0049   0.00  108.7
1316 519000.000   35.160865968  139.613843033    68.3794   1   7   0.0060   0.0040   0.0131   0.0019  -0.0041  -0.0048   0.00  110.3
1316 519030.000   35.160865961  139.613843000    68.3778   1   7   0.0059   0.0045   0.0131   0.0022  -0.0042  -0.0047   0.00  123.1
1316 519060.000   35.160865976  139.613843026    68.3764   1   7   0.0059   0.0044   0.0131   0.0023  -0.0044  -0.0045   0.00  128.5
1316 519090.000   35.160866004  139.613843053    68.3719   1   7   0.0056   0.0045   0.0132   0.0014  -0.0041  -0.0047   0.00  132.5
1316 519120.000   35.160865980  139.613843032    68.3864   1   7   0.0057   0.0042   0.0130   0.0019  -0.0042  -0.0046   0.00  144.5
1316 519150.000   35.160866001  139.613843054    68.3759   1   7   0.0057   0.0039   0.0131   0.0022  -0.0041  -0.0044   0.00  158.7
1316 519180.000   35.160866005  139.613843031    68.3850   1   7   0.0058   0.0035   0.0131   0.0016  -0.0040  -0.0045   0.00  162.7
1316 519210.000   35.160866003  139.613842992    68.3820   1   7   0.0057   0.0041   0.0130   0.0015  -0.0040  -0.0044   0.00  173.3
1316 519240.000   35.160865982  139.613842988    68.3933   1   7   0.0060   0.0041   0.0130   0.0023  -0.0041  -0.0042   0.00  185.7
1316 519270.000   35.160866004  139.613843023    68.3831   1   7   0.0057   0.0043   0.0129   0.0020  -0.0040  -0.0043   0.00  186.1
1316 519300.000   35.160865963  139.613843039    68.3868   1   7   0.0061   0.0041   0.0130   0.0023  -0.0040  -0.0039   0.00  175.8
1316 519330.000   35.160865970  139.613843019    68.3840   1   7   0.0057   0.0044   0.0129   0.0020  -0.0039  -0.0042   0.00  166.2
1316 519360.000   35.160865973  139.613843044    68.3791   1   7   0.0060   0.0041   0.0129   0.0022  -0.0037  -0.0041   0.00  156.9
1316 519390.000   35.160865966  139.613843033    68.3853   1   7   0.0058   0.0043   0.0129   0.0022  -0.0037  -0.0040   0.00  147.3
1316 519420.000   35.160865973  139.613843029    68.3874   1   7   0.0058   0.0044   0.0129   0.0022  -0.0037  -0.0039   0.00  146.7
1316 519450.000   35.160865939  139.613843032    68.3867   1   7   0.0059   0.0045   0.0129   0.0018  -0.0038  -0.0039   0.00  142.4
1316 519480.000   35.160865971  139.613843053    68.3873   1   6   0.0062   0.0042   0.0142   0.0026  -0.0027  -0.0024   0.00   78.1
1316 519510.000   35.160865965  139.613843049    68.3772   1   6   0.0057   0.0044   0.0142   0.0020  -0.0030  -0.0019   0.00   77.8
1316 519540.000   35.160865947  139.613843062    68.3903   1   6   0.0060   0.0044   0.0141   0.0026  -0.0027  -0.0020   0.00   77.6
1316 519570.000   35.160865932  139.613843043    68.3832   1   6   0.0061   0.0043   0.0141   0.0025  -0.0025  -0.0021   0.00   77.8
1316 519600.000   35.160865938  139.613843029    68.3891   1   6   0.0061   0.0044   0.0142   0.0022  -0.0025  -0.0013   0.00   76.6
1316 519630.000   35.160865950  139.613843024    68.3806   1   6   0.0061   0.0042   0.0142   0.0021  -0.0028  -0.0011   0.00   76.0
1316 519659.999   35.160865981  139.613843053    68.3812   1   6   0.0060   0.0041   0.0141   0.0022  -0.0030  -0.0005   0.00   75.8
1316 519690.000   35.160865990  139.613843009    68.3815   1   6   0.0063   0.0044   0.0141   0.0028  -0.0027  -0.0009   0.00   76.7
1316 519720.000   35.160865960  139.613842999    68.3933   1   6   0.0062   0.0036   0.0141   0.0021  -0.0028   0.0006   0.00   82.2
1316 519750.000   35.160865946  139.613842991    68.3829   1   6   0.0063   0.0043   0.0141   0.0021  -0.0027   0.0011   0.00   84.7
1316 519780.000   35.160865958  139.613843013    68.3837   1   6   0.0063   0.0046   0.0142   0.0024  -0.0023   0.0015   0.00   90.4
1316 519810.000   35.160865952  139.613843004    68.3880   1   6   0.0063   0.0042   0.0141   0.0023  -0.0025   0.0016   0.00   93.3
1316 519840.000   35.160865988  139.613843064    68.3726   1   6   0.0064   0.0046   0.0142   0.0025  -0.0023   0.0019   0.00   96.1
1316 519870.000   35.160865979  139.613843057    68.3848   1   6   0.0066   0.0041   0.0142   0.0025  -0.0025   0.0020   0.00  100.5
1316 519900.000   35.160865956  139.613843024    68.3873   1   6   0.0063   0.0036   0.0142   0.0013  -0.0026   0.0025   0.00  104.0
1316 519930.000   35.160865950  139.613843030    68.3883   1   6   0.0064   0.0042   0.0142   0.0020  -0.0022   0.0024   0.00  106.8
1316 519960.000   35.160865958  139.613843056    68.3820   1   6   0.0064   0.0047   0.0142   0.0015  -0.0022   0.0026   0.00  110.5
1316 519990.000   35.160865946  139.613843089    68.3848   1   6   0.0065   0.0045   0.0141   0.0026  -0.0023   0.0027   0.00  117.7
1316 520020.000   35.160865955  139.613843054    68.3873   1   6   0.0065   0.0038   0.0142   0.0022  -0.0023   0.0029   0.00  123.4
1316 520050.000   35.160865942  139.613843046    68.3945   1   6   0.0062   0.0039   0.0142   0.0022  -0.0022   0.0031   0.00  127.8
1316 520080.000   35.160865958  139.613843028    68.3863   1   6   0.0064   0.0042   0.0142   0.0029  -0.0020   0.0031   0.00  134.2
1316 520110.000   35.160865944  139.613843007    68.3859   1   6   0.0066   0.0043   0.0141   0.0026  -0.0023   0.0033   0.00  140.1
1316 520140.000   35.160865951  139.613843022    68.3808   1   6   0.0068   0.0045   0.0143   0.0017  -0.0013   0.0031   0.00  147.9
1316 520170.000   35.160865937  139.613843022    68.3849   1   6   0.0064   0.0042   0.0143   0.0024  -0.0013   0.0035   0.00  149.4
1316 520200.000   35.160865973  139.613843055    68.3856   1   6   0.0064   0.0044   0.0142   0.0027  -0.0020   0.0039   0.00  146.7
1316 520230.000   35.160865939  139.613843040    68.3787   1   6   0.0067   0.0046   0.0143   0.0018  -0.0012   0.0037   0.00  144.9
1316 520260.000   35.160865929  139.613843061    68.3871   1   6   0.0068   0.0048   0.0143   0.0019  -0.0014   0.0038   0.00  145.0
1316 520290.000   35.160865937  139.613843029    68.3793   1   6   0.0067   0.0044   0.0143   0.0018  -0.0021   0.0042   0.00  146.0
1316 520320.000   35.160865995  139.613843086    68.3682   1   6   0.0070   0.0039   0.0143   0.0026  -0.0016   0.0041   0.00  148.0
1316 520350.000   35.160865969  139.613843039    68.3819   1   6   0.0067   0.0043   0.0143   0.0025  -0.0014   0.0042   0.00  149.1
1316 520380.000   35.160865927  139.613843036    68.3870   1   6   0.0066   0.0040   0.0144   0.0028  -0.0018   0.0045   0.00  155.3
1316 520410.000   35.160865991  139.613843067    68.3880   1   6   0.0069   0.0044   0.0144   0.0025  -0.0013   0.0045   0.00  164.8
1316 520440.000   35.160866000  139.613843006    68.3940   1   6   0.0069   0.0041   0.0144   0.0026  -0.0014   0.0047   0.00  177.9
1316 520470.000   35.160866005  139.613843031    68.3816   1   6   0.0070   0.0044   0.0145   0.0019  -0.0003   0.0046   0.00  189.1
1316 520500.000   35.160865999  139.613843043    68.3885   1   6   0.0072   0.0041   0.0145   0.0024  -0.0008   0.0046   0.00  192.1
1316 520530.000   35.160865968  139.613843031    68.3704   1   6   0.0071   0.0042   0.0145   0.0028   0.0005   0.0048   0.00  195.0
1316 520560.000   35.160866008  139.613843077    68.3895   1   6   0.0075   0.0044   0.0146   0.0022  -0.0006   0.0048   0.00  198.3
1316 520590.000   35.160865975  139.613843059    68.3739   1   6   0.0072   0.0044   0.0146   0.0021   0.0009   0.0051   0.01  199.4
1316 520620.000   35.160865975  139.613843028    68.3849   1   6   0.0072   0.0043   0.0146   0.0025  -0.0011   0.0053   0.01  199.2
1316 520650.000   35.160865944  139.613843025    68.3792   1   6   0.0074   0.0047   0.0146   0.0021  -0.0007   0.0053   0.01  200.7
1316 520680.000   35.160865942  139.613843042    68.3793   1   6   0.0071   0.0042   0.0147   0.0028   0.0010   0.0055   0.01  201.2
1316 520710.000   35.160865936  139.613843058    68.3809   1   6   0.0074   0.0046   0.0148   0.0018   0.0017   0.0053   0.01  204.0
1316 520740.000   35.160865923  139.613843007    68.3797   1   6   0.0075   0.0044   0.0148   0.0021   0.0016   0.0054   0.01  200.8
1316 520770.000   35.160865912  139.613843010    68.3792   1   6   0.0075   0.0046   0.0149   0.0018   0.0017   0.0056   0.01  201.4
1316 520800.000   35.160865975  139.613843011    68.3797   1   6   0.0077   0.0044   0.0149   0.0022   0.0013   0.0057   0.01  196.8
1316 520830.000   35.160865984  139.613843055    68.3855   1   6   0.0077   0.0038   0.0148   0.0028  -0.0010   0.0059   0.01  197.2
1316 520860.000   35.160865930  139.613843042    68.3740   1   6   0.0075   0.0043   0.0150   0.0025   0.0014   0.0060   0.01  199.1
1316 520890.000   35.160865950  139.613843026    68.3758   1   6   0.0078   0.0046   0.0150   0.0024   0.0017   0.0060   0.01  200.2
1316 520920.000   35.160865903  139.613843012    68.3860   1   6   0.0076   0.0044   0.0151   0.0021   0.0017   0.0062   0.01  203.0
1316 520950.000   35.160865892  139.613843032    68.3798   1   6   0.0077   0.0047   0.0151   0.0021   0.0015   0.0063   0.01  203.0
1316 520980.000   35.160865887  139.613843001    68.3776   1   6   0.0076   0.0042   0.0152   0.0025   0.0011   0.0065   0.01  201.8
1316 521010.000   35.160865857  139.613842982    68.3752   1   6   0.0077   0.0041   0.0152   0.0025   0.0017   0.0065   0.01  204.5
1316 521040.000   35.160865904  139.613843025    68.3781   1   6   0.0079   0.0042   0.0153   0.0027   0.0019   0.0066   0.01  206.1
1316 521070.000   35.160865949  139.613842995    68.3891   1   6   0.0078   0.0041   0.0153   0.0028   0.0013   0.0068   0.01  209.4
1316 521100.000   35.160865955  139.613843042    68.3815   1   6   0.0081   0.0044   0.0154   0.0022   0.0020   0.0067   0.01  214.4
1316 521130.000   35.160865958  139.613843012    68.3706   1   6   0.0078   0.0041   0.0154   0.0028   0.0015   0.0070   0.01  212.7
1316 521160.000   35.160865983  139.613843007    68.3737   1   6   0.0082   0.0041   0.0155   0.0027   0.0021   0.0069   0.01  210.5
1316 521190.000   35.160865992  139.613843027    68.3683   1   6   0.0081   0.0042   0.0156   0.0027   0.0018   0.0071   0.01  208.4
1316 521220.000   35.160865981  139.613842972    68.3664   1   6   0.0082   0.0042   0.0156   0.0029   0.0019   0.0072   0.01  206.0
1316 521250.000   35.160865974  139.613842966    68.3786   1   6   0.0083   0.0043   0.0157   0.0023   0.0021   0.0073   0.01  209.2
1316 521280.000   35.160865954  139.613842947    68.3814   1   6   0.0084   0.0047   0.0158   0.0017   0.0025   0.0073   0.01  212.7
1316 521310.000   35.160865924  139.613842957    68.3693   1   6   0.0082   0.0043   0.0159   0.0021   0.0023   0.0075   0.01  213.7
1316 521340.000   35.160865997  139.613843008    68.3825   1   6   0.0083   0.0044   0.0159   0.0025   0.0021   0.0076   0.01  214.8
1316 521370.000   35.160865947  139.613842967    68.3752   1   6   0.0086   0.0043   0.0160   0.0023   0.0022   0.0076   0.01  215.6
1316 521400.000   35.160865962  139.613842982    68.3754   1   6   0.0085   0.0041   0.0161   0.0028   0.0021   0.0078   0.01  217.5
1316 521430.000   35.160865937  139.613842975    68.3723   1   6   0.0085   0.0042   0.0162   0.0028   0.0023   0.0079   0.01  219.4
1316 521460.000   35.160865953  139.613842985    68.3810   1   6   0.0086   0.0043   0.0163   0.0025   0.0027   0.0079   0.01  224.0
1316 521490.000   35.160865877  139.613843007    68.3751   1   6   0.0087   0.0035   0.0163   0.0031   0.0019   0.0081   0.01  229.5
1316 521520.000   35.160865889  139.613843038    68.3739   1   6   0.0086   0.0040   0.0164   0.0025   0.0026   0.0082   0.01  228.5
1316 521550.000   35.160865847  139.613843014    68.3634   1   6   0.0086   0.0045   0.0165   0.0027   0.0025   0.0083   0.01  227.4
1316 521580.000   35.160865897  139.613843038    68.3699   1   6   0.0088   0.0039   0.0166   0.0029   0.0024   0.0083   0.01  226.9
1316 521610.000   35.160865931  139.613843016    68.3732   1   6   0.0089   0.0046   0.0167   0.0021   0.0028   0.0083   0.01  231.2
1316 521640.000   35.160865962  139.613843018    68.3840   1   6   0.0088   0.0042   0.0167   0.0026   0.0025   0.0086   0.01  234.4
1316 521670.000   35.160865961  139.613843016    68.3833   1   6   0.0090   0.0042   0.0168   0.0026   0.0025   0.0086   0.01  230.2
1316 521700.000   35.160865984  139.613843024    68.3783   1   6   0.0090   0.0041   0.0169   0.0026   0.0024   0.0087   0.01  234.1
1316 521730.000   35.160866022  139.613843040    68.3927   1   6   0.0089   0.0043   0.0170   0.0026   0.0028   0.0088   0.01  240.8
1316 521760.000   35.160865939  139.613843015    68.3942   1   6   0.0090   0.0042   0.0171   0.0028   0.0026   0.0089   0.01  245.0
1316 521790.000   35.160865972  139.613842984    68.3771   1   6   0.0090   0.0043   0.0171   0.0029   0.0025   0.0090   0.01  248.2
1316 521820.000   35.160866219  139.613842930    68.4647   1   5   0.0404   0.0084   0.1049  -0.0167  -0.0271   0.0644   0.01  350.0
