% program   : RTKLIB ver.2.4.3
% inp file  : G:\weixing_youhua\baseline\p1b_artifacts\0759_fault_G07.05o
% inp file  : ..\..\..\..\test\data\rinex\30400920.05n
% inp file  : ..\..\..\..\test\data\rinex\30400920.05o
% obs start : 2005/04/02 00:00:00.0 GPST (week1316 518400.0s)
% obs end   : 2005/04/02 00:59:30.0 GPST (week1316 521970.0s)
% ref pos   : 35.132057068  139.624306577    73.9077
%
% (lat/lon/height=WGS84/ellipsoidal,Q=1:fix,2:float,3:sbas,4:dgps,5:single,6:ppp,ns=# of satellites)
%  GPST                  latitude(deg) longitude(deg)  height(m)   Q  ns   sdn(m)   sde(m)   sdu(m)  sdne(m)  sdeu(m)  sdun(m) age(s)  ratio
2005/04/02 00:00:00.000   35.160865956  139.613842998    68.3784   1   7   0.0058   0.0044   0.0136   0.0022  -0.0047  -0.0055   0.00   24.9
2005/04/02 00:00:30.000   35.160866883  139.613840846    68.6925   2   7   0.3950   0.3048   0.8850   0.1142  -0.2755  -0.3604   0.00    0.0
2005/04/02 00:01:00.000   35.160867209  139.613841498    68.5566   2   7   0.3048   0.2438   0.6293   0.0610  -0.1741  -0.2532   0.00    0.0
2005/04/02 00:01:30.000   35.160866451  139.613841968    68.6233   2   7   0.2465   0.2078   0.4691   0.0112  -0.1076  -0.1854   0.00    0.0
2005/04/02 00:02:00.000   35.160866006  139.613842160    68.4657   2   7   0.2051   0.1839   0.3638  -0.0386  -0.0571  -0.1416   0.00    0.0
2005/04/02 00:02:30.000   35.160866159  139.613841884    68.4010   2   7   0.1739   0.1665   0.2917  -0.0476   0.0249  -0.1123   0.00    0.0
2005/04/02 00:03:00.000   35.160866026  139.613841841    68.4073   2   7   0.1497   0.1533   0.2404  -0.0513   0.0498  -0.0923   0.00    0.0
2005/04/02 00:03:30.000   35.160866018  139.613841785    68.4669   2   7   0.1304   0.1428   0.2026  -0.0529   0.0579  -0.0781   0.00    0.0
2005/04/02 00:04:00.000   35.160866056  139.613841828    68.4547   2   7   0.1149   0.1341   0.1740  -0.0533   0.0611  -0.0679   0.00    0.0
2005/04/02 00:04:30.000   35.160866379  139.613842263    68.3954   2   7   0.1022   0.1269   0.1518  -0.0530   0.0621  -0.0603   0.00    0.0
2005/04/02 00:05:00.000   35.160866334  139.613842292    68.3815   2   7   0.0918   0.1206   0.1343  -0.0525   0.0621  -0.0544   0.00    0.0
2005/04/02 00:05:30.000   35.160866121  139.613842229    68.3347   2   7   0.0829   0.1149   0.1199  -0.0513   0.0608  -0.0495   0.00    0.0
2005/04/02 00:06:00.000   35.160866278  139.613841976    68.3154   2   7   0.0754   0.1098   0.1082  -0.0501   0.0595  -0.0457   0.00    0.0
2005/04/02 00:06:30.000   35.160866071  139.613842005    68.3238   2   7   0.0691   0.1053   0.0985  -0.0490   0.0581  -0.0426   0.00    0.0
2005/04/02 00:07:00.000   35.160865953  139.613842115    68.3276   2   7   0.0636   0.1013   0.0903  -0.0480   0.0568  -0.0401   0.00    0.0
2005/04/02 00:07:30.000   35.160865849  139.613842229    68.3313   2   7   0.0590   0.0977   0.0835  -0.0469   0.0555  -0.0379   0.00    0.0
2005/04/02 00:08:00.000   35.160866036  139.613842308    68.3433   2   7   0.0550   0.0944   0.0776  -0.0459   0.0542  -0.0362   0.00    0.0
2005/04/02 00:08:30.000   35.160866085  139.613842427    68.3590   2   7   0.0514   0.0913   0.0725  -0.0450   0.0529  -0.0346   0.00    0.0
2005/04/02 00:09:00.000   35.160866041  139.613842564    68.3662   2   7   0.0483   0.0886   0.0681  -0.0441   0.0518  -0.0333   0.00    0.0
2005/04/02 00:09:30.000   35.160865935  139.613842631    68.3546   2   7   0.0456   0.0861   0.0642  -0.0432   0.0507  -0.0321   0.00    0.0
2005/04/02 00:10:00.000   35.160865900  139.613842545    68.3917   2   7   0.0432   0.0837   0.0608  -0.0424   0.0496  -0.0311   0.00    0.0
2005/04/02 00:10:30.000   35.160865892  139.613842620    68.3847   2   7   0.0411   0.0815   0.0578  -0.0416   0.0486  -0.0302   0.00    0.0
2005/04/02 00:11:00.000   35.160865941  139.613842673    68.3904   2   7   0.0391   0.0794   0.0551  -0.0408   0.0476  -0.0293   0.00    0.0
2005/04/02 00:11:30.000   35.160865989  139.613842625    68.3849   2   7   0.0374   0.0775   0.0527  -0.0401   0.0466  -0.0286   0.00    0.0
2005/04/02 00:12:00.000   35.160865954  139.613842615    68.3879   2   7   0.0358   0.0757   0.0505  -0.0394   0.0458  -0.0278   0.00    0.0
2005/04/02 00:12:30.000   35.160865908  139.613842718    68.3778   2   7   0.0344   0.0740   0.0485  -0.0387   0.0449  -0.0272   0.00    0.0
2005/04/02 00:13:00.000   35.160865923  139.613842566    68.3858   2   7   0.0332   0.0724   0.0468  -0.0381   0.0441  -0.0266   0.00    0.0
2005/04/02 00:13:30.000   35.160865959  139.613842485    68.3749   2   7   0.0320   0.0709   0.0452  -0.0375   0.0433  -0.0261   0.00    0.0
2005/04/02 00:14:00.000   35.160865939  139.613842524    68.3813   2   7   0.0309   0.0694   0.0437  -0.0369   0.0426  -0.0256   0.00    0.0
2005/04/02 00:14:30.000   35.160865966  139.613842518    68.3618   2   7   0.0300   0.0680   0.0424  -0.0363   0.0419  -0.0251   0.00    0.0
2005/04/02 00:15:00.000   35.160865945  139.613842507    68.3559   2   7   0.0291   0.0668   0.0411  -0.0358   0.0412  -0.0246   0.00    0.0
2005/04/02 00:15:30.000   35.160865973  139.613842487    68.3456   2   7   0.0282   0.0655   0.0400  -0.0353   0.0405  -0.0242   0.00    0.0
2005/04/02 00:16:00.000   35.160866015  139.613842439    68.3392   2   7   0.0276   0.0643   0.0389  -0.0347   0.0398  -0.0238   0.00    0.0
2005/04/02 00:16:30.000   35.160865982  139.613842463    68.3451   2   7   0.0268   0.0631   0.0379  -0.0342   0.0392  -0.0234   0.00    0.0
2005/04/02 00:17:00.000   35.160865988  139.613842448    68.3510   2   7   0.0262   0.0621   0.0370  -0.0338   0.0387  -0.0231   0.00    0.0
2005/04/02 00:17:30.000   35.160865939  139.613843032    68.3867   1   7   0.0063   0.0041   0.0128   0.0021  -0.0039  -0.0039   0.00  183.1
2005/04/02 00:18:00.000   35.160865971  139.613843053    68.3873   1   6   0.0065   0.0042   0.0141   0.0022  -0.0030  -0.0025   0.00   97.0
2005/04/02 00:18:30.000   35.160865965  139.613843049    68.3772   1   6   0.0064   0.0045   0.0141   0.0021  -0.0028  -0.0023   0.00   92.2
2005/04/02 00:19:00.000   35.160865947  139.613843062    68.3903   1   6   0.0065   0.0045   0.0142   0.0023  -0.0029  -0.0022   0.00   90.2
2005/04/02 00:19:30.000   35.160865932  139.613843043    68.3832   1   6   0.0066   0.0042   0.0141   0.0025  -0.0029  -0.0021   0.00   88.6
2005/04/02 00:20:00.000   35.160865938  139.613843029    68.3891   1   6   0.0064   0.0041   0.0141   0.0025  -0.0030  -0.0018   0.00   86.6
2005/04/02 00:20:30.000   35.160865950  139.613843024    68.3806   1   6   0.0062   0.0044   0.0141   0.0020  -0.0027  -0.0012   0.00   85.3
2005/04/02 00:20:59.999   35.160865981  139.613843053    68.3812   1   6   0.0062   0.0039   0.0141   0.0020  -0.0028  -0.0011   0.00   84.6
2005/04/02 00:21:30.000   35.160865990  139.613843009    68.3815   1   6   0.0061   0.0046   0.0141   0.0025  -0.0027   0.0005   0.00   85.0
2005/04/02 00:22:00.000   35.160865960  139.613842999    68.3933   1   6   0.0063   0.0040   0.0141   0.0024  -0.0025  -0.0012   0.00   90.7
2005/04/02 00:22:30.000   35.160865946  139.613842991    68.3829   1   6   0.0062   0.0040   0.0141   0.0019  -0.0029   0.0012   0.00   92.6
2005/04/02 00:23:00.000   35.160865958  139.613843013    68.3837   1   6   0.0061   0.0041   0.0141   0.0021  -0.0025   0.0014   0.00   98.8
2005/04/02 00:23:30.000   35.160865952  139.613843004    68.3880   1   6   0.0062   0.0046   0.0142   0.0020  -0.0024   0.0016   0.00  100.6
2005/04/02 00:24:00.000   35.160865988  139.613843064    68.3726   1   6   0.0066   0.0045   0.0141   0.0022  -0.0024   0.0018   0.00  103.2
2005/04/02 00:24:30.000   35.160865979  139.613843057    68.3848   1   6   0.0066   0.0040   0.0141   0.0020  -0.0025   0.0017   0.00  107.7
2005/04/02 00:25:00.000   35.160865956  139.613843024    68.3873   1   6   0.0066   0.0049   0.0142   0.0025  -0.0020   0.0022   0.00  111.2
2005/04/02 00:25:30.000   35.160865950  139.613843030    68.3883   1   6   0.0064   0.0038   0.0143   0.0018  -0.0019   0.0024   0.00  113.5
2005/04/02 00:26:00.000   35.160865958  139.613843056    68.3820   1   6   0.0065   0.0045   0.0141   0.0020  -0.0024   0.0026   0.00  117.6
2005/04/02 00:26:30.000   35.160865946  139.613843089    68.3848   1   6   0.0066   0.0044   0.0141   0.0026  -0.0022   0.0026   0.00  125.0
2005/04/02 00:27:00.000   35.160865955  139.613843054    68.3873   1   6   0.0067   0.0045   0.0142   0.0026  -0.0020   0.0029   0.00  131.0
2005/04/02 00:27:30.000   35.160865942  139.613843046    68.3945   1   6   0.0065   0.0046   0.0142   0.0025  -0.0020   0.0032   0.00  135.2
2005/04/02 00:28:00.000   35.160865958  139.613843028    68.3863   1   6   0.0065   0.0038   0.0142   0.0018  -0.0021   0.0033   0.00  141.1
2005/04/02 00:28:30.000   35.160865944  139.613843007    68.3859   1   6   0.0066   0.0035   0.0142   0.0019  -0.0021   0.0035   0.00  146.6
2005/04/02 00:29:00.000   35.160865951  139.613843022    68.3808   1   6   0.0066   0.0046   0.0143   0.0018  -0.0011   0.0033   0.00  154.2
2005/04/02 00:29:30.000   35.160865937  139.613843022    68.3849   1   6   0.0067   0.0041   0.0143   0.0025  -0.0018   0.0035   0.00  155.0
2005/04/02 00:30:00.000   35.160865973  139.613843055    68.3856   1   6   0.0069   0.0034   0.0143   0.0025  -0.0017   0.0035   0.00  151.3
2005/04/02 00:30:30.000   35.160865939  139.613843040    68.3787   1   6   0.0063   0.0042   0.0143   0.0029  -0.0019   0.0040   0.00  149.0
2005/04/02 00:31:00.000   35.160865929  139.613843061    68.3871   1   6   0.0067   0.0044   0.0143   0.0020  -0.0016   0.0039   0.00  148.5
2005/04/02 00:31:30.000   35.160865937  139.613843029    68.3793   1   6   0.0065   0.0042   0.0143   0.0025  -0.0016   0.0041   0.00  149.0
2005/04/02 00:32:00.000   35.160865995  139.613843086    68.3682   1   6   0.0067   0.0045   0.0143   0.0023  -0.0019   0.0044   0.00  150.6
2005/04/02 00:32:30.000   35.160865969  139.613843039    68.3819   1   6   0.0070   0.0043   0.0143   0.0024  -0.0017   0.0043   0.00  151.2
2005/04/02 00:33:00.000   35.160865927  139.613843036    68.3870   1   6   0.0067   0.0040   0.0144   0.0026  -0.0015   0.0044   0.00  157.4
2005/04/02 00:33:30.000   35.160865991  139.613843067    68.3880   1   6   0.0068   0.0044   0.0144   0.0026  -0.0014   0.0044   0.00  166.8
2005/04/02 00:34:00.000   35.160866000  139.613843006    68.3940   1   6   0.0072   0.0041   0.0144   0.0027  -0.0017   0.0047   0.00  177.1
2005/04/02 00:34:30.000   35.160866005  139.613843031    68.3816   1   6   0.0070   0.0043   0.0145   0.0024  -0.0009   0.0046   0.00  185.8
2005/04/02 00:35:00.000   35.160865999  139.613843043    68.3885   1   6   0.0071   0.0044   0.0145   0.0021   0.0002   0.0048   0.00  189.0
2005/04/02 00:35:30.000   35.160865968  139.613843031    68.3704   1   6   0.0070   0.0042   0.0146   0.0023   0.0008   0.0048   0.00  191.8
2005/04/02 00:36:00.000   35.160866008  139.613843077    68.3895   1   6   0.0069   0.0042   0.0146   0.0026   0.0003   0.0050   0.00  195.2
2005/04/02 00:36:30.000   35.160865975  139.613843059    68.3739   1   6   0.0072   0.0040   0.0145   0.0027  -0.0017   0.0051   0.01  196.4
2005/04/02 00:37:00.000   35.160865975  139.613843028    68.3849   1   6   0.0072   0.0039   0.0146   0.0026  -0.0015   0.0053   0.01  196.2
2005/04/02 00:37:30.000   35.160865944  139.613843025    68.3792   1   6   0.0075   0.0041   0.0146   0.0027  -0.0012   0.0053   0.01  197.8
2005/04/02 00:38:00.000   35.160865942  139.613843042    68.3793   1   6   0.0074   0.0042   0.0147   0.0026   0.0005   0.0054   0.01  198.4
2005/04/02 00:38:30.000   35.160865936  139.613843058    68.3809   1   6   0.0071   0.0042   0.0147   0.0025  -0.0006   0.0057   0.01  201.3
2005/04/02 00:39:00.000   35.160865923  139.613843007    68.3797   1   6   0.0075   0.0046   0.0148   0.0022   0.0010   0.0056   0.01  198.4
2005/04/02 00:39:30.000   35.160865912  139.613843010    68.3792   1   6   0.0073   0.0045   0.0148   0.0024   0.0013   0.0057   0.01  199.0
2005/04/02 00:40:00.000   35.160865975  139.613843011    68.3797   1   6   0.0076   0.0044   0.0148   0.0020   0.0013   0.0057   0.01  194.5
2005/04/02 00:40:30.000   35.160865984  139.613843055    68.3855   1   6   0.0075   0.0046   0.0149   0.0023   0.0015   0.0059   0.01  195.0
2005/04/02 00:41:00.000   35.160865930  139.613843042    68.3740   1   6   0.0074   0.0041   0.0149   0.0030   0.0010   0.0061   0.01  197.1
2005/04/02 00:41:30.000   35.160865950  139.613843026    68.3758   1   6   0.0074   0.0045   0.0150   0.0025   0.0014   0.0062   0.01  198.2
2005/04/02 00:42:00.000   35.160865903  139.613843012    68.3860   1   6   0.0076   0.0040   0.0150   0.0026   0.0008   0.0063   0.01  201.1
2005/04/02 00:42:30.000   35.160865892  139.613843032    68.3798   1   6   0.0077   0.0044   0.0151   0.0028   0.0013   0.0063   0.01  201.3
2005/04/02 00:43:00.000   35.160865887  139.613843001    68.3776   1   6   0.0077   0.0043   0.0152   0.0026   0.0014   0.0065   0.01  200.2
2005/04/02 00:43:30.000   35.160865857  139.613842982    68.3752   1   6   0.0080   0.0043   0.0153   0.0022   0.0018   0.0064   0.01  203.0
2005/04/02 00:44:00.000   35.160865904  139.613843025    68.3781   1   6   0.0077   0.0045   0.0152   0.0023   0.0014   0.0067   0.01  204.7
2005/04/02 00:44:30.000   35.160865949  139.613842995    68.3891   1   6   0.0079   0.0042   0.0153   0.0025   0.0015   0.0067   0.01  208.2
2005/04/02 00:45:00.000   35.160865955  139.613843042    68.3815   1   6   0.0079   0.0041   0.0154   0.0028   0.0014   0.0068   0.01  213.3
2005/04/02 00:45:30.000   35.160865958  139.613843012    68.3706   1   6   0.0082   0.0043   0.0154   0.0019   0.0022   0.0068   0.01  211.7
2005/04/02 00:46:00.000   35.160865983  139.613843007    68.3737   1   6   0.0078   0.0042   0.0155   0.0024   0.0018   0.0071   0.01  209.6
2005/04/02 00:46:30.000   35.160865992  139.613843027    68.3683   1   6   0.0082   0.0043   0.0156   0.0021   0.0022   0.0070   0.01  207.5
2005/04/02 00:47:00.000   35.160865981  139.613842972    68.3664   1   6   0.0081   0.0044   0.0157   0.0023   0.0022   0.0072   0.01  205.3
2005/04/02 00:47:30.000   35.160865974  139.613842966    68.3786   1   6   0.0080   0.0041   0.0157   0.0028   0.0017   0.0074   0.01  208.6
2005/04/02 00:48:00.000   35.160865954  139.613842947    68.3814   1   6   0.0082   0.0041   0.0158   0.0030   0.0017   0.0075   0.01  212.2
2005/04/02 00:48:30.000   35.160865924  139.613842957    68.3693   1   6   0.0083   0.0041   0.0159   0.0028   0.0020   0.0075   0.01  213.3
2005/04/02 00:49:00.000   35.160865997  139.613843008    68.3825   1   6   0.0084   0.0046   0.0160   0.0021   0.0025   0.0075   0.01  214.6
2005/04/02 00:49:30.000   35.160865947  139.613842967    68.3752   1   6   0.0082   0.0041   0.0160   0.0030   0.0021   0.0078   0.01  215.4
2005/04/02 00:50:00.000   35.160865962  139.613842982    68.3754   1   6   0.0086   0.0040   0.0161   0.0024   0.0023   0.0077   0.01  217.3
2005/04/02 00:50:30.000   35.160865937  139.613842975    68.3723   1   6   0.0083   0.0037   0.0162   0.0027   0.0023   0.0079   0.01  219.3
2005/04/02 00:51:00.000   35.160865953  139.613842985    68.3810   1   6   0.0086   0.0038   0.0162   0.0031   0.0021   0.0080   0.01  224.1
2005/04/02 00:51:30.000   35.160865877  139.613843007    68.3751   1   6   0.0084   0.0042   0.0163   0.0026   0.0022   0.0081   0.01  229.6
2005/04/02 00:52:00.000   35.160865889  139.613843038    68.3739   1   6   0.0086   0.0043   0.0164   0.0025   0.0025   0.0082   0.01  228.7
2005/04/02 00:52:30.000   35.160865847  139.613843014    68.3634   1   6   0.0085   0.0039   0.0165   0.0029   0.0021   0.0084   0.01  227.6
2005/04/02 00:53:00.000   35.160865897  139.613843038    68.3699   1   6   0.0089   0.0044   0.0166   0.0019   0.0027   0.0082   0.01  227.2
2005/04/02 00:53:30.000   35.160865931  139.613843016    68.3732   1   6   0.0087   0.0036   0.0166   0.0032   0.0019   0.0085   0.01  231.5
2005/04/02 00:54:00.000   35.160865962  139.613843018    68.3840   1   6   0.0088   0.0043   0.0167   0.0026   0.0026   0.0085   0.01  234.7
2005/04/02 00:54:30.000   35.160865961  139.613843016    68.3833   1   6   0.0090   0.0043   0.0168   0.0024   0.0026   0.0086   0.01  230.5
2005/04/02 00:55:00.000   35.160865984  139.613843024    68.3783   1   6   0.0091   0.0044   0.0169   0.0023   0.0028   0.0086   0.01  234.5
2005/04/02 00:55:30.000   35.160866022  139.613843040    68.3927   1   6   0.0092   0.0046   0.0170   0.0025   0.0025   0.0088   0.01  241.3
2005/04/02 00:56:00.000   35.160865939  139.613843015    68.3942   1   6   0.0092   0.0044   0.0171   0.0023   0.0029   0.0088   0.01  245.5
2005/04/02 00:56:30.000   35.160865972  139.613842984    68.3771   1   6   0.0091   0.0043   0.0171   0.0021   0.0027   0.0089   0.01  248.7
2005/04/02 00:57:00.000   35.160866219  139.613842930    68.4647   1   5   0.0404   0.0085   0.1049  -0.0166  -0.0271   0.0644   0.01  350.6
