% program   : RTKLIB ver.2.4.3
% inp file  : ..\..\..\..\test\data\rinex\07590920.05o
% inp file  : ..\..\..\..\test\data\rinex\30400920.05n
% inp file  : ..\..\..\..\test\data\rinex\30400920.05o
% obs start : 2005/04/02 00:00:00.0 GPST (week1316 518400.0s)
% obs end   : 2005/04/02 00:59:30.0 GPST (week1316 521970.0s)
% ref pos   : 35.132057068  139.624306577    73.9077
%
% (lat/lon/height=WGS84/ellipsoidal,Q=1:fix,2:float,3:sbas,4:dgps,5:single,6:ppp,ns=# of satellites)
%  GPST                  latitude(deg) longitude(deg)  height(m)   Q  ns   sdn(m)   sde(m)   sdu(m)  sdne(m)  sdeu(m)  sdun(m) age(s)  ratio
2005/04/02 00:00:00.000   35.160865956  139.613842998    68.3784   1   7   0.0058   0.0044   0.0136   0.0022  -0.0047  -0.0055   0.00   24.9
2005/04/02 00:00:30.000   35.160865949  139.613843027    68.3719   1   7   0.0057   0.0044   0.0136   0.0022  -0.0046  -0.0055   0.00   40.7
2005/04/02 00:01:00.000   35.160865936  139.613843023    68.3733   1   7   0.0056   0.0045   0.0136   0.0023  -0.0047  -0.0054   0.00   41.2
2005/04/02 00:01:30.000   35.160865927  139.613843004    68.3837   1   7   0.0056   0.0044   0.0135   0.0019  -0.0048  -0.0054   0.00   49.5
2005/04/02 00:02:00.000   35.160865971  139.613843055    68.3815   1   7   0.0059   0.0045   0.0135   0.0020  -0.0048  -0.0053   0.00   57.6
2005/04/02 00:02:30.000   35.160865963  139.613843040    68.3782   1   7   0.0058   0.0043   0.0135   0.0022  -0.0046  -0.0053   0.00   66.4
2005/04/02 00:03:00.000   35.160865941  139.613843020    68.3914   1   7   0.0057   0.0042   0.0135   0.0022  -0.0046  -0.0052   0.00   75.4
2005/04/02 00:03:30.000   35.160865924  139.613842999    68.3961   1   7   0.0057   0.0042   0.0135   0.0017  -0.0047  -0.0053   0.00   67.2
2005/04/02 00:04:00.000   35.160865958  139.613842990    68.3935   1   7   0.0057   0.0045   0.0134   0.0025  -0.0044  -0.0051   0.00   66.5
2005/04/02 00:04:30.000   35.160865970  139.613843069    68.3779   1   7   0.0057   0.0041   0.0134   0.0023  -0.0045  -0.0052   0.00   62.6
2005/04/02 00:05:00.000   35.160866001  139.613843022    68.3836   1   7   0.0059   0.0046   0.0134   0.0023  -0.0045  -0.0051   0.00   66.5
2005/04/02 00:05:30.000   35.160866013  139.613842985    68.3899   1   7   0.0056   0.0041   0.0134   0.0019  -0.0045  -0.0052   0.00   82.1
2005/04/02 00:06:00.000   35.160866021  139.613842999    68.3806   1   7   0.0058   0.0046   0.0133   0.0024  -0.0044  -0.0050   0.00   81.8
2005/04/02 00:06:30.000   35.160866001  139.613843001    68.3812   1   7   0.0057   0.0044   0.0132   0.0025  -0.0045  -0.0050   0.00   83.5
2005/04/02 00:07:00.000   35.160865967  139.613842968    68.3870   1   7   0.0056   0.0042   0.0133   0.0022  -0.0044  -0.0050   0.00   83.5
2005/04/02 00:07:30.000   35.160865969  139.613842966    68.3887   1   7   0.0058   0.0050   0.0133   0.0025  -0.0040  -0.0050   0.00   83.0
2005/04/02 00:08:00.000   35.160865977  139.613842996    68.3834   1   7   0.0057   0.0047   0.0133   0.0024  -0.0043  -0.0048   0.00   87.8
2005/04/02 00:08:30.000   35.160865955  139.613842962    68.3823   1   7   0.0059   0.0044   0.0132   0.0025  -0.0039  -0.0049   0.00   92.8
2005/04/02 00:09:00.000   35.160865934  139.613843002    68.3834   1   7   0.0059   0.0046   0.0132   0.0023  -0.0041  -0.0048   0.00   97.3
2005/04/02 00:09:30.000   35.160865976  139.613843073    68.3581   1   7   0.0057   0.0044   0.0132   0.0023  -0.0042  -0.0047   0.00   98.4
2005/04/02 00:10:00.000   35.160865969  139.613843034    68.3789   1   7   0.0057   0.0043   0.0131   0.0022  -0.0042  -0.0048   0.00  101.2
2005/04/02 00:10:30.000   35.160865961  139.613843000    68.3773   1   7   0.0059   0.0046   0.0132   0.0018  -0.0041  -0.0047   0.00  113.3
2005/04/02 00:11:00.000   35.160865976  139.613843026    68.3761   1   7   0.0057   0.0042   0.0132   0.0015  -0.0041  -0.0047   0.00  119.5
2005/04/02 00:11:30.000   35.160866004  139.613843053    68.3720   1   7   0.0058   0.0043   0.0131   0.0020  -0.0041  -0.0044   0.00  125.2
2005/04/02 00:12:00.000   35.160865981  139.613843032    68.3847   1   7   0.0060   0.0047   0.0131   0.0025  -0.0039  -0.0045   0.00  137.7
2005/04/02 00:12:30.000   35.160866001  139.613843054    68.3751   1   7   0.0058   0.0045   0.0131   0.0018  -0.0040  -0.0044   0.00  150.2
2005/04/02 00:13:00.000   35.160866005  139.613843031    68.3840   1   7   0.0060   0.0045   0.0130   0.0022  -0.0039  -0.0044   0.00  155.7
2005/04/02 00:13:30.000   35.160866003  139.613842992    68.3816   1   7   0.0059   0.0046   0.0131   0.0022  -0.0038  -0.0043   0.00  167.5
2005/04/02 00:14:00.000   35.160865983  139.613842988    68.3930   1   7   0.0060   0.0042   0.0130   0.0019  -0.0040  -0.0042   0.00  180.4
2005/04/02 00:14:30.000   35.160866005  139.613843023    68.3824   1   7   0.0058   0.0041   0.0130   0.0019  -0.0039  -0.0043   0.00  184.8
2005/04/02 00:15:00.000   35.160865963  139.613843039    68.3855   1   7   0.0057   0.0044   0.0129   0.0017  -0.0039  -0.0043   0.00  175.1
2005/04/02 00:15:30.000   35.160865970  139.613843019    68.3828   1   7   0.0057   0.0045   0.0130   0.0017  -0.0038  -0.0042   0.00  165.5
2005/04/02 00:16:00.000   35.160865973  139.613843044    68.3781   1   7   0.0060   0.0045   0.0128   0.0020  -0.0038  -0.0043   0.00  156.6
2005/04/02 00:16:30.000   35.160865966  139.613843033    68.3839   1   7   0.0058   0.0043   0.0129   0.0024  -0.0037  -0.0039   0.00  145.9
2005/04/02 00:17:00.000   35.160865973  139.613843029    68.3858   1   7   0.0056   0.0039   0.0129   0.0018  -0.0038  -0.0039   0.00  144.8
2005/04/02 00:17:30.000   35.160865939  139.613843032    68.3857   1   7   0.0057   0.0046   0.0129   0.0021  -0.0037  -0.0038   0.00  141.3
2005/04/02 00:18:00.000   35.160865971  139.613843053    68.3865   1   6   0.0062   0.0040   0.0141   0.0027  -0.0029  -0.0024   0.00   76.9
2005/04/02 00:18:30.000   35.160865965  139.613843049    68.3766   1   6   0.0061   0.0046   0.0142   0.0025  -0.0031  -0.0017   0.00   76.1
2005/04/02 00:19:00.000   35.160865947  139.613843062    68.3899   1   6   0.0059   0.0044   0.0142   0.0022  -0.0027  -0.0020   0.00   76.8
2005/04/02 00:19:30.000   35.160865932  139.613843043    68.3828   1   6   0.0061   0.0040   0.0141   0.0026  -0.0028  -0.0019   0.00   77.7
2005/04/02 00:20:00.000   35.160865939  139.613843029    68.3880   1   6   0.0063   0.0046   0.0142   0.0024  -0.0026  -0.0016   0.00   76.7
2005/04/02 00:20:30.000   35.160865950  139.613843024    68.3798   1   6   0.0062   0.0045   0.0141   0.0026  -0.0025  -0.0014   0.00   76.5
2005/04/02 00:20:59.999   35.160865981  139.613843053    68.3802   1   6   0.0061   0.0043   0.0142   0.0027  -0.0023  -0.0016   0.00   77.0
2005/04/02 00:21:30.000   35.160865990  139.613843010    68.3808   1   6   0.0063   0.0039   0.0141   0.0025  -0.0029  -0.0007   0.00   78.2
2005/04/02 00:22:00.000   35.160865960  139.613843000    68.3926   1   6   0.0065   0.0042   0.0141   0.0025  -0.0026   0.0005   0.00   83.3
2005/04/02 00:22:30.000   35.160865946  139.613842992    68.3825   1   6   0.0063   0.0044   0.0141   0.0019  -0.0026   0.0012   0.00   86.2
2005/04/02 00:23:00.000   35.160865958  139.613843013    68.3840   1   6   0.0064   0.0043   0.0142   0.0023  -0.0024   0.0012   0.00   92.3
2005/04/02 00:23:30.000   35.160865952  139.613843004    68.3873   1   6   0.0062   0.0046   0.0142   0.0017  -0.0025   0.0019   0.00   94.9
2005/04/02 00:24:00.000   35.160865988  139.613843065    68.3721   1   6   0.0061   0.0040   0.0141   0.0020  -0.0026   0.0022   0.00   98.1
2005/04/02 00:24:30.000   35.160865980  139.613843057    68.3842   1   6   0.0065   0.0048   0.0141   0.0025  -0.0021   0.0019   0.00  102.6
2005/04/02 00:25:00.000   35.160865956  139.613843024    68.3875   1   6   0.0064   0.0041   0.0141   0.0021  -0.0022   0.0018   0.00  106.1
2005/04/02 00:25:30.000   35.160865950  139.613843030    68.3876   1   6   0.0064   0.0043   0.0142   0.0024  -0.0024   0.0025   0.00  108.9
2005/04/02 00:26:00.000   35.160865958  139.613843056    68.3819   1   6   0.0063   0.0046   0.0142   0.0022  -0.0023   0.0027   0.00  112.8
2005/04/02 00:26:30.000   35.160865947  139.613843089    68.3842   1   6   0.0065   0.0047   0.0141   0.0022  -0.0022   0.0029   0.00  119.9
2005/04/02 00:27:00.000   35.160865955  139.613843054    68.3873   1   6   0.0067   0.0046   0.0142   0.0028  -0.0024   0.0029   0.00  125.6
2005/04/02 00:27:30.000   35.160865942  139.613843046    68.3941   1   6   0.0066   0.0041   0.0142   0.0022  -0.0023   0.0032   0.00  131.3
2005/04/02 00:28:00.000   35.160865958  139.613843028    68.3855   1   6   0.0067   0.0042   0.0142   0.0025  -0.0020   0.0032   0.00  137.2
2005/04/02 00:28:30.000   35.160865944  139.613843008    68.3854   1   6   0.0066   0.0042   0.0142   0.0024  -0.0019   0.0031   0.00  143.7
2005/04/02 00:29:00.000   35.160865952  139.613843022    68.3802   1   6   0.0067   0.0046   0.0142   0.0019  -0.0019   0.0034   0.00  151.2
2005/04/02 00:29:30.000   35.160865937  139.613843022    68.3856   1   6   0.0068   0.0040   0.0143   0.0019  -0.0018   0.0034   0.00  154.0
2005/04/02 00:30:00.000   35.160865973  139.613843056    68.3853   1   6   0.0066   0.0037   0.0142   0.0027  -0.0019   0.0037   0.00  151.9
2005/04/02 00:30:30.000   35.160865939  139.613843040    68.3778   1   6   0.0068   0.0044   0.0143   0.0019  -0.0016   0.0037   0.00  148.9
2005/04/02 00:31:00.000   35.160865929  139.613843061    68.3867   1   6   0.0069   0.0044   0.0143   0.0022  -0.0007   0.0037   0.00  149.3
2005/04/02 00:31:30.000   35.160865937  139.613843029    68.3787   1   6   0.0068   0.0042   0.0144   0.0021  -0.0006   0.0038   0.00  150.6
2005/04/02 00:32:00.000   35.160865995  139.613843086    68.3672   1   6   0.0068   0.0043   0.0144   0.0021  -0.0009   0.0040   0.00  152.8
2005/04/02 00:32:30.000   35.160865969  139.613843040    68.3815   1   6   0.0066   0.0043   0.0144   0.0025  -0.0015   0.0044   0.00  154.4
2005/04/02 00:33:00.000   35.160865927  139.613843036    68.3865   1   6   0.0067   0.0045   0.0144   0.0024  -0.0014   0.0045   0.00  161.1
2005/04/02 00:33:30.000   35.160865991  139.613843068    68.3878   1   6   0.0069   0.0040   0.0144   0.0030  -0.0021   0.0046   0.00  171.8
2005/04/02 00:34:00.000   35.160866000  139.613843007    68.3928   1   6   0.0070   0.0044   0.0144   0.0019  -0.0009   0.0045   0.00  186.4
2005/04/02 00:34:30.000   35.160866005  139.613843031    68.3813   1   6   0.0067   0.0040   0.0144   0.0027  -0.0019   0.0049   0.00  199.1
2005/04/02 00:35:00.000   35.160865999  139.613843044    68.3874   1   6   0.0070   0.0042   0.0145   0.0026  -0.0010   0.0048   0.00  204.2
2005/04/02 00:35:30.000   35.160865968  139.613843031    68.3696   1   6   0.0072   0.0042   0.0146   0.0025   0.0004   0.0048   0.00  206.1
2005/04/02 00:36:00.000   35.160866008  139.613843078    68.3886   1   6   0.0071   0.0045   0.0145   0.0025  -0.0006   0.0050   0.00  208.8
2005/04/02 00:36:30.000   35.160865974  139.613843059    68.3735   1   6   0.0073   0.0041   0.0146   0.0029  -0.0010   0.0051   0.01  209.8
2005/04/02 00:37:00.000   35.160865974  139.613843028    68.3844   1   6   0.0071   0.0042   0.0146   0.0025   0.0011   0.0052   0.01  209.8
2005/04/02 00:37:30.000   35.160865943  139.613843025    68.3779   1   6   0.0072   0.0044   0.0147   0.0024   0.0007   0.0053   0.01  209.4
2005/04/02 00:38:00.000   35.160865942  139.613843043    68.3784   1   6   0.0073   0.0044   0.0147   0.0025  -0.0009   0.0055   0.01  209.5
2005/04/02 00:38:30.000   35.160865935  139.613843058    68.3799   1   6   0.0075   0.0037   0.0147   0.0030   0.0004   0.0055   0.01  209.2
2005/04/02 00:39:00.000   35.160865923  139.613843008    68.3792   1   6   0.0076   0.0046   0.0148   0.0020   0.0014   0.0055   0.01  206.2
2005/04/02 00:39:30.000   35.160865911  139.613843010    68.3779   1   6   0.0075   0.0046   0.0148   0.0021   0.0015   0.0056   0.01  207.7
2005/04/02 00:40:00.000   35.160865975  139.613843012    68.3786   1   6   0.0074   0.0046   0.0149   0.0020   0.0015   0.0058   0.01  204.9
2005/04/02 00:40:30.000   35.160865983  139.613843056    68.3844   1   6   0.0076   0.0047   0.0149   0.0022   0.0018   0.0058   0.01  205.6
2005/04/02 00:41:00.000   35.160865930  139.613843043    68.3732   1   6   0.0076   0.0043   0.0150   0.0023   0.0017   0.0060   0.01  205.5
2005/04/02 00:41:30.000   35.160865950  139.613843027    68.3753   1   6   0.0079   0.0042   0.0150   0.0023   0.0013   0.0061   0.01  207.0
2005/04/02 00:42:00.000   35.160865902  139.613843012    68.3849   1   6   0.0079   0.0046   0.0151   0.0021   0.0018   0.0061   0.01  209.2
2005/04/02 00:42:30.000   35.160865892  139.613843033    68.3792   1   6   0.0077   0.0044   0.0151   0.0023   0.0015   0.0063   0.01  209.5
2005/04/02 00:43:00.000   35.160865887  139.613843002    68.3768   1   6   0.0079   0.0043   0.0152   0.0025   0.0017   0.0063   0.01  209.5
2005/04/02 00:43:30.000   35.160865857  139.613842982    68.3746   1   6   0.0078   0.0045   0.0152   0.0021   0.0017   0.0066   0.01  210.4
2005/04/02 00:44:00.000   35.160865904  139.613843026    68.3769   1   6   0.0078   0.0042   0.0153   0.0027   0.0013   0.0067   0.01  210.3
2005/04/02 00:44:30.000   35.160865948  139.613842995    68.3879   1   6   0.0081   0.0043   0.0153   0.0024   0.0019   0.0066   0.01  211.9
2005/04/02 00:45:00.000   35.160865954  139.613843042    68.3806   1   6   0.0079   0.0044   0.0154   0.0025   0.0015   0.0069   0.01  216.1
2005/04/02 00:45:30.000   35.160865957  139.613843012    68.3697   1   6   0.0078   0.0039   0.0155   0.0028   0.0017   0.0070   0.01  213.7
2005/04/02 00:46:00.000   35.160865981  139.613843008    68.3723   1   6   0.0082   0.0043   0.0156   0.0027   0.0022   0.0069   0.01  210.4
2005/04/02 00:46:30.000   35.160865991  139.613843027    68.3674   1   6   0.0079   0.0044   0.0156   0.0024   0.0021   0.0072   0.01  208.8
2005/04/02 00:47:00.000   35.160865981  139.613842972    68.3658   1   6   0.0080   0.0041   0.0156   0.0027   0.0017   0.0073   0.01  205.7
2005/04/02 00:47:30.000   35.160865972  139.613842967    68.3770   1   6   0.0080   0.0041   0.0157   0.0029   0.0018   0.0074   0.01  208.4
2005/04/02 00:48:00.000   35.160865953  139.613842947    68.3804   1   6   0.0082   0.0043   0.0158   0.0024   0.0021   0.0074   0.01  211.7
2005/04/02 00:48:30.000   35.160865922  139.613842958    68.3675   1   6   0.0083   0.0041   0.0158   0.0027   0.0020   0.0075   0.01  212.8
2005/04/02 00:49:00.000   35.160865996  139.613843008    68.3811   1   6   0.0085   0.0040   0.0159   0.0026   0.0020   0.0075   0.01  214.2
2005/04/02 00:49:30.000   35.160865944  139.613842967    68.3733   1   6   0.0084   0.0042   0.0160   0.0031   0.0020   0.0077   0.01  214.6
2005/04/02 00:50:00.000   35.160865960  139.613842983    68.3739   1   6   0.0083   0.0044   0.0161   0.0027   0.0021   0.0079   0.01  216.9
2005/04/02 00:50:30.000   35.160865935  139.613842976    68.3706   1   6   0.0085   0.0042   0.0161   0.0029   0.0018   0.0080   0.01  218.8
2005/04/02 00:51:00.000   35.160865951  139.613842986    68.3795   1   6   0.0084   0.0047   0.0162   0.0021   0.0024   0.0081   0.01  224.1
2005/04/02 00:51:30.000   35.160865875  139.613843008    68.3735   1   6   0.0088   0.0047   0.0164   0.0024   0.0028   0.0079   0.01  227.9
2005/04/02 00:52:00.000   35.160865887  139.613843039    68.3725   1   6   0.0086   0.0042   0.0164   0.0022   0.0025   0.0081   0.01  227.2
2005/04/02 00:52:30.000   35.160865844  139.613843014    68.3617   1   6   0.0089   0.0043   0.0165   0.0023   0.0026   0.0082   0.01  224.8
2005/04/02 00:53:00.000   35.160865895  139.613843039    68.3687   1   6   0.0087   0.0041   0.0165   0.0029   0.0022   0.0084   0.01  225.1
2005/04/02 00:53:30.000   35.160865929  139.613843016    68.3719   1   6   0.0090   0.0047   0.0166   0.0017   0.0027   0.0083   0.01  228.6
2005/04/02 00:54:00.000   35.160865959  139.613843019    68.3821   1   6   0.0089   0.0041   0.0167   0.0026   0.0026   0.0085   0.01  232.6
2005/04/02 00:54:30.000   35.160865959  139.613843017    68.3817   1   6   0.0088   0.0041   0.0168   0.0028   0.0024   0.0087   0.01  230.1
2005/04/02 00:55:00.000   35.160865979  139.613843025    68.3758   1   6   0.0090   0.0046   0.0169   0.0020   0.0027   0.0087   0.01  234.3
2005/04/02 00:55:30.000   35.160866018  139.613843040    68.3908   1   6   0.0090   0.0046   0.0170   0.0024   0.0027   0.0088   0.01  241.1
2005/04/02 00:56:00.000   35.160865936  139.613843015    68.3928   1   6   0.0090   0.0043   0.0171   0.0025   0.0028   0.0089   0.01  246.2
2005/04/02 00:56:30.000   35.160865969  139.613842985    68.3752   1   6   0.0091   0.0038   0.0171   0.0031   0.0024   0.0090   0.01  248.9
2005/04/02 00:57:00.000   35.160866239  139.613842926    68.4780   1   5   0.0404   0.0085   0.1049  -0.0167  -0.0271   0.0644   0.01  355.0
