% program   : RTKLIB ver.2.4.3
% inp file  : ..\..\..\..\test\data\rinex\07590920.05o
% inp file  : ..\..\..\..\test\data\rinex\30400920.05n
% inp file  : ..\..\..\..\test\data\rinex\30400920.05o
% obs start : 2005/04/02 00:00:00.0 GPST (week1316 518400.0s)
% obs end   : 2005/04/02 00:59:30.0 GPST (week1316 521970.0s)
% ref pos   : 35.132057068  139.624306577    73.9077
%
% (lat/lon/height=WGS84/ellipsoidal,Q=1:fix,2:float,3:sbas,4:dgps,5:single,6:ppp,ns=# of satellites)
%  GPST                  latitude(deg) longitude(deg)  height(m)   Q  ns   sdn(m)   sde(m)   sdu(m)  sdne(m)  sdeu(m)  sdun(m) age(s)  ratio
2005/04/02 00:00:00.000   35.160865956  139.613842998    68.3784   1   7   0.0058   0.0044   0.0136   0.0022  -0.0047  -0.0055   0.00   24.9
2005/04/02 00:00:30.000   35.160865949  139.613843027    68.3717   1   7   0.0059   0.0043   0.0136   0.0022  -0.0046  -0.0055   0.00   41.6
2005/04/02 00:01:00.000   35.160865937  139.613843023    68.3731   1   7   0.0059   0.0045   0.0136   0.0021  -0.0046  -0.0055   0.00   41.3
2005/04/02 00:01:30.000   35.160865926  139.613843004    68.3840   1   7   0.0057   0.0044   0.0135   0.0020  -0.0047  -0.0054   0.00   53.6
2005/04/02 00:02:00.000   35.160865972  139.613843055    68.3811   1   7   0.0058   0.0044   0.0135   0.0023  -0.0047  -0.0054   0.00   65.1
2005/04/02 00:02:30.000   35.160865963  139.613843040    68.3787   1   7   0.0058   0.0046   0.0136   0.0022  -0.0045  -0.0054   0.00   68.8
2005/04/02 00:03:00.000   35.160865940  139.613843020    68.3916   1   7   0.0056   0.0045   0.0135   0.0022  -0.0045  -0.0054   0.00   78.7
2005/04/02 00:03:30.000   35.160865923  139.613842999    68.3960   1   7   0.0058   0.0044   0.0135   0.0021  -0.0046  -0.0052   0.00   70.9
2005/04/02 00:04:00.000   35.160865958  139.613842990    68.3941   1   7   0.0059   0.0044   0.0135   0.0022  -0.0046  -0.0052   0.00   69.2
2005/04/02 00:04:30.000   35.160865970  139.613843070    68.3780   1   7   0.0060   0.0044   0.0134   0.0028  -0.0043  -0.0051   0.00   66.4
2005/04/02 00:05:00.000   35.160866001  139.613843023    68.3837   1   7   0.0057   0.0046   0.0134   0.0021  -0.0045  -0.0051   0.00   69.8
2005/04/02 00:05:30.000   35.160866014  139.613842985    68.3898   1   7   0.0059   0.0044   0.0134   0.0022  -0.0045  -0.0051   0.00   86.5
2005/04/02 00:06:00.000   35.160866021  139.613842999    68.3806   1   7   0.0059   0.0042   0.0134   0.0024  -0.0044  -0.0049   0.00   83.6
2005/04/02 00:06:30.000   35.160866000  139.613843001    68.3818   1   7   0.0056   0.0046   0.0134   0.0022  -0.0045  -0.0048   0.00   86.9
2005/04/02 00:07:00.000   35.160865966  139.613842969    68.3873   1   7   0.0059   0.0039   0.0133   0.0016  -0.0044  -0.0050   0.00   88.5
2005/04/02 00:07:30.000   35.160865968  139.613842967    68.3893   1   7   0.0056   0.0044   0.0133   0.0024  -0.0042  -0.0049   0.00   89.1
2005/04/02 00:08:00.000   35.160865977  139.613842996    68.3840   1   7   0.0058   0.0045   0.0133   0.0022  -0.0044  -0.0049   0.00   95.1
2005/04/02 00:08:30.000   35.160865955  139.613842962    68.3826   1   7   0.0056   0.0044   0.0133   0.0020  -0.0043  -0.0049   0.00  101.2
2005/04/02 00:09:00.000   35.160865934  139.613843002    68.3839   1   7   0.0058   0.0044   0.0133   0.0021  -0.0041  -0.0049   0.00  107.1
2005/04/02 00:09:30.000   35.160865976  139.613843073    68.3586   1   7   0.0059   0.0042   0.0132   0.0019  -0.0042  -0.0049   0.00  108.7
2005/04/02 00:10:00.000   35.160865968  139.613843033    68.3794   1   7   0.0060   0.0040   0.0131   0.0019  -0.0041  -0.0048   0.00  110.3
2005/04/02 00:10:30.000   35.160865961  139.613843000    68.3778   1   7   0.0059   0.0045   0.0131   0.0022  -0.0042  -0.0047   0.00  123.1
2005/04/02 00:11:00.000   35.160865976  139.613843026    68.3764   1   7   0.0059   0.0044   0.0131   0.0023  -0.0044  -0.0045   0.00  128.5
2005/04/02 00:11:30.000   35.160866004  139.613843053    68.3719   1   7   0.0056   0.0045   0.0132   0.0014  -0.0041  -0.0047   0.00  132.5
2005/04/02 00:12:00.000   35.160865980  139.613843032    68.3864   1   7   0.0057   0.0042   0.0130   0.0019  -0.0042  -0.0046   0.00  144.5
2005/04/02 00:12:30.000   35.160866001  139.613843054    68.3759   1   7   0.0057   0.0039   0.0131   0.0022  -0.0041  -0.0044   0.00  158.7
2005/04/02 00:13:00.000   35.160866005  139.613843031    68.3850   1   7   0.0058   0.0035   0.0131   0.0016  -0.0040  -0.0045   0.00  162.7
2005/04/02 00:13:30.000   35.160866003  139.613842992    68.3820   1   7   0.0057   0.0041   0.0130   0.0015  -0.0040  -0.0044   0.00  173.3
2005/04/02 00:14:00.000   35.160865982  139.613842988    68.3933   1   7   0.0060   0.0041   0.0130   0.0023  -0.0041  -0.0042   0.00  185.7
2005/04/02 00:14:30.000   35.160866004  139.613843023    68.3831   1   7   0.0057   0.0043   0.0129   0.0020  -0.0040  -0.0043   0.00  186.1
2005/04/02 00:15:00.000   35.160865963  139.613843039    68.3868   1   7   0.0061   0.0041   0.0130   0.0023  -0.0040  -0.0039   0.00  175.8
2005/04/02 00:15:30.000   35.160865970  139.613843019    68.3840   1   7   0.0057   0.0044   0.0129   0.0020  -0.0039  -0.0042   0.00  166.2
2005/04/02 00:16:00.000   35.160865973  139.613843044    68.3791   1   7   0.0060   0.0041   0.0129   0.0022  -0.0037  -0.0041   0.00  156.9
2005/04/02 00:16:30.000   35.160865966  139.613843033    68.3853   1   7   0.0058   0.0043   0.0129   0.0022  -0.0037  -0.0040   0.00  147.3
2005/04/02 00:17:00.000   35.160865973  139.613843029    68.3874   1   7   0.0058   0.0044   0.0129   0.0022  -0.0037  -0.0039   0.00  146.7
2005/04/02 00:17:30.000   35.160865939  139.613843032    68.3867   1   7   0.0059   0.0045   0.0129   0.0018  -0.0038  -0.0039   0.00  142.4
2005/04/02 00:18:00.000   35.160865971  139.613843053    68.3873   1   6   0.0062   0.0042   0.0142   0.0026  -0.0027  -0.0024   0.00   78.1
2005/04/02 00:18:30.000   35.160865965  139.613843049    68.3772   1   6   0.0057   0.0044   0.0142   0.0020  -0.0030  -0.0019   0.00   77.8
2005/04/02 00:19:00.000   35.160865947  139.613843062    68.3903   1   6   0.0060   0.0044   0.0141   0.0026  -0.0027  -0.0020   0.00   77.6
2005/04/02 00:19:30.000   35.160865932  139.613843043    68.3832   1   6   0.0061   0.0043   0.0141   0.0025  -0.0025  -0.0021   0.00   77.8
2005/04/02 00:20:00.000   35.160865938  139.613843029    68.3891   1   6   0.0061   0.0044   0.0142   0.0022  -0.0025  -0.0013   0.00   76.6
2005/04/02 00:20:30.000   35.160865950  139.613843024    68.3806   1   6   0.0061   0.0042   0.0142   0.0021  -0.0028  -0.0011   0.00   76.0
2005/04/02 00:20:59.999   35.160865981  139.613843053    68.3812   1   6   0.0060   0.0041   0.0141   0.0022  -0.0030  -0.0005   0.00   75.8
2005/04/02 00:21:30.000   35.160865990  139.613843009    68.3815   1   6   0.0063   0.0044   0.0141   0.0028  -0.0027  -0.0009   0.00   76.7
2005/04/02 00:22:00.000   35.160865960  139.613842999    68.3933   1   6   0.0062   0.0036   0.0141   0.0021  -0.0028   0.0006   0.00   82.2
2005/04/02 00:22:30.000   35.160865946  139.613842991    68.3829   1   6   0.0063   0.0043   0.0141   0.0021  -0.0027   0.0011   0.00   84.7
2005/04/02 00:23:00.000   35.160865958  139.613843013    68.3837   1   6   0.0063   0.0046   0.0142   0.0024  -0.0023   0.0015   0.00   90.4
2005/04/02 00:23:30.000   35.160865952  139.613843004    68.3880   1   6   0.0063   0.0042   0.0141   0.0023  -0.0025   0.0016   0.00   93.3
2005/04/02 00:24:00.000   35.160865988  139.613843064    68.3726   1   6   0.0064   0.0046   0.0142   0.0025  -0.0023   0.0019   0.00   96.1
2005/04/02 00:24:30.000   35.160865979  139.613843057    68.3848   1   6   0.0066   0.0041   0.0142   0.0025  -0.0025   0.0020   0.00  100.5
2005/04/02 00:25:00.000   35.160865956  139.613843024    68.3873   1   6   0.0063   0.0036   0.0142   0.0013  -0.0026   0.0025   0.00  104.0
2005/04/02 00:25:30.000   35.160865950  139.613843030    68.3883   1   6   0.0064   0.0042   0.0142   0.0020  -0.0022   0.0024   0.00  106.8
2005/04/02 00:26:00.000   35.160865958  139.613843056    68.3820   1   6   0.0064   0.0047   0.0142   0.0015  -0.0022   0.0026   0.00  110.5
2005/04/02 00:26:30.000   35.160865946  139.613843089    68.3848   1   6   0.0065   0.0045   0.0141   0.0026  -0.0023   0.0027   0.00  117.7
2005/04/02 00:27:00.000   35.160865955  139.613843054    68.3873   1   6   0.0065   0.0038   0.0142   0.0022  -0.0023   0.0029   0.00  123.4
2005/04/02 00:27:30.000   35.160865942  139.613843046    68.3945   1   6   0.0062   0.0039   0.0142   0.0022  -0.0022   0.0031   0.00  127.8
2005/04/02 00:28:00.000   35.160865958  139.613843028    68.3863   1   6   0.0064   0.0042   0.0142   0.0029  -0.0020   0.0031   0.00  134.2
2005/04/02 00:28:30.000   35.160865944  139.613843007    68.3859   1   6   0.0066   0.0043   0.0141   0.0026  -0.0023   0.0033   0.00  140.1
2005/04/02 00:29:00.000   35.160865951  139.613843022    68.3808   1   6   0.0068   0.0045   0.0143   0.0017  -0.0013   0.0031   0.00  147.9
2005/04/02 00:29:30.000   35.160865937  139.613843022    68.3849   1   6   0.0064   0.0042   0.0143   0.0024  -0.0013   0.0035   0.00  149.4
2005/04/02 00:30:00.000   35.160865973  139.613843055    68.3856   1   6   0.0064   0.0044   0.0142   0.0027  -0.0020   0.0039   0.00  146.7
2005/04/02 00:30:30.000   35.160865939  139.613843040    68.3787   1   6   0.0067   0.0046   0.0143   0.0018  -0.0012   0.0037   0.00  144.9
2005/04/02 00:31:00.000   35.160865929  139.613843061    68.3871   1   6   0.0068   0.0048   0.0143   0.0019  -0.0014   0.0038   0.00  145.0
2005/04/02 00:31:30.000   35.160865937  139.613843029    68.3793   1   6   0.0067   0.0044   0.0143   0.0018  -0.0021   0.0042   0.00  146.0
2005/04/02 00:32:00.000   35.160865995  139.613843086    68.3682   1   6   0.0070   0.0039   0.0143   0.0026  -0.0016   0.0041   0.00  148.0
2005/04/02 00:32:30.000   35.160865969  139.613843039    68.3819   1   6   0.0067   0.0043   0.0143   0.0025  -0.0014   0.0042   0.00  149.1
2005/04/02 00:33:00.000   35.160865927  139.613843036    68.3870   1   6   0.0066   0.0040   0.0144   0.0028  -0.0018   0.0045   0.00  155.3
2005/04/02 00:33:30.000   35.160865991  139.613843067    68.3880   1   6   0.0069   0.0044   0.0144   0.0025  -0.0013   0.0045   0.00  164.8
2005/04/02 00:34:00.000   35.160866000  139.613843006    68.3940   1   6   0.0069   0.0041   0.0144   0.0026  -0.0014   0.0047   0.00  177.9
2005/04/02 00:34:30.000   35.160866005  139.613843031    68.3816   1   6   0.0070   0.0044   0.0145   0.0019  -0.0003   0.0046   0.00  189.1
2005/04/02 00:35:00.000   35.160865999  139.613843043    68.3885   1   6   0.0072   0.0041   0.0145   0.0024  -0.0008   0.0046   0.00  192.1
2005/04/02 00:35:30.000   35.160865968  139.613843031    68.3704   1   6   0.0071   0.0042   0.0145   0.0028   0.0005   0.0048   0.00  195.0
2005/04/02 00:36:00.000   35.160866008  139.613843077    68.3895   1   6   0.0075   0.0044   0.0146   0.0022  -0.0006   0.0048   0.00  198.3
2005/04/02 00:36:30.000   35.160865975  139.613843059    68.3739   1   6   0.0072   0.0044   0.0146   0.0021   0.0009   0.0051   0.01  199.4
2005/04/02 00:37:00.000   35.160865975  139.613843028    68.3849   1   6   0.0072   0.0043   0.0146   0.0025  -0.0011   0.0053   0.01  199.2
2005/04/02 00:37:30.000   35.160865944  139.613843025    68.3792   1   6   0.0074   0.0047   0.0146   0.0021  -0.0007   0.0053   0.01  200.7
2005/04/02 00:38:00.000   35.160865942  139.613843042    68.3793   1   6   0.0071   0.0042   0.0147   0.0028   0.0010   0.0055   0.01  201.2
2005/04/02 00:38:30.000   35.160865936  139.613843058    68.3809   1   6   0.0074   0.0046   0.0148   0.0018   0.0017   0.0053   0.01  204.0
2005/04/02 00:39:00.000   35.160865923  139.613843007    68.3797   1   6   0.0075   0.0044   0.0148   0.0021   0.0016   0.0054   0.01  200.8
2005/04/02 00:39:30.000   35.160865912  139.613843010    68.3792   1   6   0.0075   0.0046   0.0149   0.0018   0.0017   0.0056   0.01  201.4
2005/04/02 00:40:00.000   35.160865975  139.613843011    68.3797   1   6   0.0077   0.0044   0.0149   0.0022   0.0013   0.0057   0.01  196.8
2005/04/02 00:40:30.000   35.160865984  139.613843055    68.3855   1   6   0.0077   0.0038   0.0148   0.0028  -0.0010   0.0059   0.01  197.2
2005/04/02 00:41:00.000   35.160865930  139.613843042    68.3740   1   6   0.0075   0.0043   0.0150   0.0025   0.0014   0.0060   0.01  199.1
2005/04/02 00:41:30.000   35.160865950  139.613843026    68.3758   1   6   0.0078   0.0046   0.0150   0.0024   0.0017   0.0060   0.01  200.2
2005/04/02 00:42:00.000   35.160865903  139.613843012    68.3860   1   6   0.0076   0.0044   0.0151   0.0021   0.0017   0.0062   0.01  203.0
2005/04/02 00:42:30.000   35.160865892  139.613843032    68.3798   1   6   0.0077   0.0047   0.0151   0.0021   0.0015   0.0063   0.01  203.0
2005/04/02 00:43:00.000   35.160865887  139.613843001    68.3776   1   6   0.0076   0.0042   0.0152   0.0025   0.0011   0.0065   0.01  201.8
2005/04/02 00:43:30.000   35.160865857  139.613842982    68.3752   1   6   0.0077   0.0041   0.0152   0.0025   0.0017   0.0065   0.01  204.5
2005/04/02 00:44:00.000   35.160865904  139.613843025    68.3781   1   6   0.0079   0.0042   0.0153   0.0027   0.0019   0.0066   0.01  206.1
2005/04/02 00:44:30.000   35.160865949  139.613842995    68.3891   1   6   0.0078   0.0041   0.0153   0.0028   0.0013   0.0068   0.01  209.4
2005/04/02 00:45:00.000   35.160865955  139.613843042    68.3815   1   6   0.0081   0.0044   0.0154   0.0022   0.0020   0.0067   0.01  214.4
2005/04/02 00:45:30.000   35.160865958  139.613843012    68.3706   1   6   0.0078   0.0041   0.0154   0.0028   0.0015   0.0070   0.01  212.7
2005/04/02 00:46:00.000   35.160865983  139.613843007    68.3737   1   6   0.0082   0.0041   0.0155   0.0027   0.0021   0.0069   0.01  210.5
2005/04/02 00:46:30.000   35.160865992  139.613843027    68.3683   1   6   0.0081   0.0042   0.0156   0.0027   0.0018   0.0071   0.01  208.4
2005/04/02 00:47:00.000   35.160865981  139.613842972    68.3664   1   6   0.0082   0.0042   0.0156   0.0029   0.0019   0.0072   0.01  206.0
2005/04/02 00:47:30.000   35.160865974  139.613842966    68.3786   1   6   0.0083   0.0043   0.0157   0.0023   0.0021   0.0073   0.01  209.2
2005/04/02 00:48:00.000   35.160865954  139.613842947    68.3814   1   6   0.0084   0.0047   0.0158   0.0017   0.0025   0.0073   0.01  212.7
2005/04/02 00:48:30.000   35.160865924  139.613842957    68.3693   1   6   0.0082   0.0043   0.0159   0.0021   0.0023   0.0075   0.01  213.7
2005/04/02 00:49:00.000   35.160865997  139.613843008    68.3825   1   6   0.0083   0.0044   0.0159   0.0025   0.0021   0.0076   0.01  214.8
2005/04/02 00:49:30.000   35.160865947  139.613842967    68.3752   1   6   0.0086   0.0043   0.0160   0.0023   0.0022   0.0076   0.01  215.6
2005/04/02 00:50:00.000   35.160865962  139.613842982    68.3754   1   6   0.0085   0.0041   0.0161   0.0028   0.0021   0.0078   0.01  217.5
2005/04/02 00:50:30.000   35.160865937  139.613842975    68.3723   1   6   0.0085   0.0042   0.0162   0.0028   0.0023   0.0079   0.01  219.4
2005/04/02 00:51:00.000   35.160865953  139.613842985    68.3810   1   6   0.0086   0.0043   0.0163   0.0025   0.0027   0.0079   0.01  224.0
2005/04/02 00:51:30.000   35.160865877  139.613843007    68.3751   1   6   0.0087   0.0035   0.0163   0.0031   0.0019   0.0081   0.01  229.5
2005/04/02 00:52:00.000   35.160865889  139.613843038    68.3739   1   6   0.0086   0.0040   0.0164   0.0025   0.0026   0.0082   0.01  228.5
2005/04/02 00:52:30.000   35.160865847  139.613843014    68.3634   1   6   0.0086   0.0045   0.0165   0.0027   0.0025   0.0083   0.01  227.4
2005/04/02 00:53:00.000   35.160865897  139.613843038    68.3699   1   6   0.0088   0.0039   0.0166   0.0029   0.0024   0.0083   0.01  226.9
2005/04/02 00:53:30.000   35.160865931  139.613843016    68.3732   1   6   0.0089   0.0046   0.0167   0.0021   0.0028   0.0083   0.01  231.2
2005/04/02 00:54:00.000   35.160865962  139.613843018    68.3840   1   6   0.0088   0.0042   0.0167   0.0026   0.0025   0.0086   0.01  234.4
2005/04/02 00:54:30.000   35.160865961  139.613843016    68.3833   1   6   0.0090   0.0042   0.0168   0.0026   0.0025   0.0086   0.01  230.2
2005/04/02 00:55:00.000   35.160865984  139.613843024    68.3783   1   6   0.0090   0.0041   0.0169   0.0026   0.0024   0.0087   0.01  234.1
2005/04/02 00:55:30.000   35.160866022  139.613843040    68.3927   1   6   0.0089   0.0043   0.0170   0.0026   0.0028   0.0088   0.01  240.8
2005/04/02 00:56:00.000   35.160865939  139.613843015    68.3942   1   6   0.0090   0.0042   0.0171   0.0028   0.0026   0.0089   0.01  245.0
2005/04/02 00:56:30.000   35.160865972  139.613842984    68.3771   1   6   0.0090   0.0043   0.0171   0.0029   0.0025   0.0090   0.01  248.2
2005/04/02 00:57:00.000   35.160866219  139.613842930    68.4647   1   5   0.0404   0.0084   0.1049  -0.0167  -0.0271   0.0644   0.01  350.0
